[{       "title": "The Met Around the World",        "link": "http://www.metmuseum.org/the_met_around_the_world",        "description": "",        "ProjectInfo": [                { "ID":"10002", "Category":"Traveling Exhibitions", "CategoryID":"1", "theDate":"", "Title":"Wonder of the Age: Master Painters of India, 1100–1900 ",   "city":"Zurich","country":"Switzerland","region":"Europe","dateStart":"5/1/2011","dateEnd":"8/31/2011","dateDisplay":"May–August 2011","lat":"47.367347","long":"8.5500025","dateExpire":"7/31/2025"},{ "ID":"10005", "Category":"Traveling Exhibitions", "CategoryID":"1", "theDate":"", "Title":"Rembrandt and Degas: Portrait of the Artist as a Young Man ",   "city":"Amsterdam","country":"The Netherlands","region":"Europe","dateStart":"6/1/2011","dateEnd":"10/31/2011","dateDisplay":"June–October 2011","lat":"52.3730556","long":"4.8922222","dateExpire":"7/31/2025"},{ "ID":"10005", "Category":"Traveling Exhibitions", "CategoryID":"1", "theDate":"", "Title":"Rembrandt and Degas: Portrait of the Artist as a Young Man ",   "city":"Williamstown, Massuchusetts","country":"U.S.A.","region":"North America","dateStart":"11/13/2011","dateEnd":"3/5/2012","dateDisplay":"November 2011–February 2012","lat":"42.7120249","long":"-73.2037177","dateExpire":"7/31/2025"},{ "ID":"10006", "Category":"Traveling Exhibitions", "CategoryID":"1", "theDate":"", "Title":"Poetry in Clay: Korean Buncheong Ceramics from Leeum, Samsung Museum of Art ",   "city":"New York, New York","country":"U.S.A.","region":"North America","dateStart":"4/1/2011","dateEnd":"8/31/2011","dateDisplay":"April–August 2011","lat":"40.779501544521715","long":"-73.96202087402344","dateExpire":"7/31/2025"},{ "ID":"10007", "Category":"Traveling Exhibitions", "CategoryID":"1", "theDate":"", "Title":"Heroic Africans: Legendary Leaders, Iconic Sculptures ",   "city":"New York, New York","country":"U.S.A.","region":"North America","dateStart":"9/1/2011","dateEnd":"1/31/2012","dateDisplay":"September 2011–January 2012","lat":"40.779501544521715","long":"-73.96202087402344","dateExpire":"7/31/2025"},{ "ID":"10008", "Category":"Traveling Exhibitions", "CategoryID":"1", "theDate":"", "Title":"The Renaissance Portrait from Donatello to Bellini ",   "city":"Berlin","country":"Germany","region":"Europe","dateStart":"8/1/2011","dateEnd":"11/30/2011","dateDisplay":"August–November 2011","lat":"52.5234051","long":"13.4113999","dateExpire":"7/31/2025"},{ "ID":"10009", "Category":"Traveling Exhibitions", "CategoryID":"1", "theDate":"", "Title":"The Steins Collect: Matisse, Picasso, and the Parisian Avant-Garde ",   "city":"San Francisco, California","country":"U.S.A.","region":"North America","dateStart":"5/1/2011","dateEnd":"9/30/2011","dateDisplay":"May–September 2011","lat":"37.7749295","long":"-122.4194155","dateExpire":"7/31/2025"},{ "ID":"10009", "Category":"Traveling Exhibitions", "CategoryID":"1", "theDate":"", "Title":"The Steins Collect: Matisse, Picasso, and the Parisian Avant-Garde ",   "city":"Paris","country":"France","region":"Europe","dateStart":"10/1/2011","dateEnd":"1/31/2012","dateDisplay":"October 2011–January 2012","lat":"48.856614","long":"2.3522219","dateExpire":"7/31/2025"},{ "ID":"10010", "Category":"Traveling Exhibitions", "CategoryID":"1", "theDate":"", "Title":"The Art of Illumination: The Limbourg Brothers and the Belles Heures of Jean de France, Duc de Berry ",   "city":"New York, New York","country":"U.S.A.","region":"North America","dateStart":"3/1/2010","dateEnd":"6/30/2010","dateDisplay":"March–June 2010","lat":"40.779501544521715","long":"-73.96202087402344","dateExpire":"7/31/2025"},{ "ID":"10011", "Category":"Traveling Exhibitions", "CategoryID":"1", "theDate":"", "Title":"Earth, Sea, and Sky: Nature in Western Art—Masterpieces from The Metropolitan Museum of Art ",   "city":"Tokyo","country":"Japan","region":"Asia","dateStart":"10/1/2012","dateEnd":"1/31/2013","dateDisplay":"October 2012–January 2013","lat":"35.6894875","long":"139.6917064","dateExpire":"5/31/2013"},{ "ID":"10012", "Category":"Traveling Exhibitions", "CategoryID":"1", "theDate":"", "Title":"George Bellows ",   "city":"Washington, D.C.","country":"U.S.A.","region":"North America","dateStart":"6/1/2012","dateEnd":"10/31/2012","dateDisplay":"June–October 2012","lat":"38.8951118","long":"-77.0363658","dateExpire":"7/31/2025"},{ "ID":"10012", "Category":"Traveling Exhibitions", "CategoryID":"1", "theDate":"", "Title":"George Bellows ",   "city":"New York, New York","country":"U.S.A.","region":"North America","dateStart":"11/1/2012","dateEnd":"2/28/2013","dateDisplay":"November 2012–February 2013","lat":"40.779501544521715","long":"-73.96202087402344","dateExpire":"7/31/2025"},{ "ID":"10013", "Category":"Traveling Exhibitions", "CategoryID":"1", "theDate":"", "Title":"Matisse: In Search of True Painting ",   "city":"Paris","country":"France","region":"Europe","dateStart":"3/1/2012","dateEnd":"6/30/2012","dateDisplay":"March–June 2012","lat":"48.856614","long":"2.3522219","dateExpire":"7/31/2025"},{ "ID":"10013", "Category":"Traveling Exhibitions", "CategoryID":"1", "theDate":"", "Title":"Matisse: In Search of True Painting ",   "city":"Copenhagen","country":"Denmark","region":"Europe","dateStart":"7/1/2012","dateEnd":"10/31/2012","dateDisplay":"July–October 2012","lat":"55.6760968","long":"12.5683371","dateExpire":"7/31/2025"},{ "ID":"10014", "Category":"Traveling Exhibitions", "CategoryID":"1", "theDate":"", "Title":"Impressionism, Fashion, and Modernity ",   "city":"Paris","country":"France","region":"Europe","dateStart":"9/1/2012","dateEnd":"1/31/2013","dateDisplay":"September 2012–January 2013","lat":"48.856614","long":"2.3522219","dateExpire":"7/31/2025"},{ "ID":"10014", "Category":"Traveling Exhibitions", "CategoryID":"1", "theDate":"", "Title":"Impressionism, Fashion, and Modernity ",   "city":"New York, New York","country":"U.S.A.","region":"North America","dateStart":"2/1/2013","dateEnd":"5/31/2013","dateDisplay":"February–May 2013","lat":"40.779501544521715","long":"-73.96202087402344","dateExpire":"7/31/2025"},{ "ID":"10002", "Category":"Traveling Exhibitions", "CategoryID":"1", "theDate":"", "Title":"Wonder of the Age: Master Painters of India, 1100–1900 ",   "city":"New York, New York","country":"U.S.A.","region":"North America","dateStart":"9/1/2011","dateEnd":"1/31/2012","dateDisplay":"September 2011–January 2012","lat":"40.779501544521715","long":"-73.96202087402344","dateExpire":"7/31/2025"},{ "ID":"10005", "Category":"Traveling Exhibitions", "CategoryID":"1", "theDate":"", "Title":"Rembrandt and Degas: Portrait of the Artist as a Young Man ",   "city":"New York, New York","country":"U.S.A.","region":"North America","dateStart":"2/1/2012","dateEnd":"5/31/2012","dateDisplay":"February–May 2012","lat":"40.779501544521715","long":"-73.96202087402344","dateExpire":"7/31/2025"},{ "ID":"10006", "Category":"Traveling Exhibitions", "CategoryID":"1", "theDate":"", "Title":"Poetry in Clay: Korean Buncheong Ceramics from Leeum, Samsung Museum of Art ",   "city":"San Francisco, California","country":"U.S.A.","region":"North America","dateStart":"9/1/2011","dateEnd":"1/31/2012","dateDisplay":"September 2011–January 2012","lat":"37.7749295","long":"-122.4194155","dateExpire":"7/31/2025"},{ "ID":"10007", "Category":"Traveling Exhibitions", "CategoryID":"1", "theDate":"", "Title":"Heroic Africans: Legendary Leaders, Iconic Sculptures ",   "city":"Zurich","country":"Switzerland","region":"Europe","dateStart":"2/1/2012","dateEnd":"6/30/2012","dateDisplay":"February–June 2012","lat":"47.367347","long":"8.5500025","dateExpire":"7/31/2025"},{ "ID":"10008", "Category":"Traveling Exhibitions", "CategoryID":"1", "theDate":"", "Title":"The Renaissance Portrait from Donatello to Bellini ",   "city":"New York, New York","country":"U.S.A.","region":"North America","dateStart":"12/1/2011","dateEnd":"3/31/2012","dateDisplay":"December 2011–March 2012","lat":"40.779501544521715","long":"-73.96202087402344","dateExpire":"7/31/2025"},{ "ID":"10009", "Category":"Traveling Exhibitions", "CategoryID":"1", "theDate":"", "Title":"The Steins Collect: Matisse, Picasso, and the Parisian Avant-Garde ",   "city":"New York, New York","country":"U.S.A.","region":"North America","dateStart":"2/1/2012","dateEnd":"6/30/2012","dateDisplay":"February–June 2012","lat":"40.779501544521715","long":"-73.96202087402344","dateExpire":"7/31/2025"},{ "ID":"10012", "Category":"Traveling Exhibitions", "CategoryID":"1", "theDate":"", "Title":"George Bellows ",   "city":"London","country":"United Kingdom","region":"Europe","dateStart":"3/1/2013","dateEnd":"6/30/2013","dateDisplay":"March–June 2013","lat":"51.5001524","long":"-0.1262362","dateExpire":"7/31/2025"},{ "ID":"10013", "Category":"Traveling Exhibitions", "CategoryID":"1", "theDate":"", "Title":"Matisse: In Search of True Painting ",   "city":"New York, New York","country":"U.S.A.","region":"North America","dateStart":"12/4/2012","dateEnd":"3/17/2013","dateDisplay":"December 4, 2012–March 17, 2013","lat":"40.779501544521715","long":"-73.96202087402344","dateExpire":"7/31/2025"},{ "ID":"10014", "Category":"Traveling Exhibitions", "CategoryID":"1", "theDate":"", "Title":"Impressionism, Fashion, and Modernity ",   "city":"Chicago, Illinois","country":"U.S.A.","region":"North America","dateStart":"6/1/2013","dateEnd":"9/30/2013","dateDisplay":"June–September 2013","lat":"41.8781136","long":"-87.6297982","dateExpire":"7/31/2025"},{ "ID":"10194", "Category":"Traveling Exhibitions", "CategoryID":"1", "theDate":"", "Title":"Raphael to Renoir: Drawings from the Collection of Jean Bonna ",   "city":"New York, New York","country":"U.S.A.","region":"North America","dateStart":"1/1/2009","dateEnd":"4/30/2009","dateDisplay":"January–April 2009","lat":"40.779501544521715","long":"-73.96202087402344","dateExpire":"7/31/2025"},{ "ID":"10194", "Category":"Traveling Exhibitions", "CategoryID":"1", "theDate":"", "Title":"Raphael to Renoir: Drawings from the Collection of Jean Bonna ",   "city":"Edinburgh","country":"United Kingdom","region":"Europe","dateStart":"6/1/2009","dateEnd":"9/30/2009","dateDisplay":"June–September 2009","lat":"55.9501755","long":"-3.1875359","dateExpire":"7/31/2025"},{ "ID":"10195", "Category":"Traveling Exhibitions", "CategoryID":"1", "theDate":"", "Title":"Cast in Bronze: French Sculpture from Renaissance to Revolution ",   "city":"Paris","country":"France","region":"Europe","dateStart":"10/1/2008","dateEnd":"1/31/2009","dateDisplay":"October 2008–January 2009","lat":"48.856614","long":"2.3522219","dateExpire":"7/31/2025"},{ "ID":"10195", "Category":"Traveling Exhibitions", "CategoryID":"1", "theDate":"", "Title":"Cast in Bronze: French Sculpture from Renaissance to Revolution ",   "city":"New York, New York","country":"U.S.A.","region":"North America","dateStart":"2/1/2009","dateEnd":"5/31/2009","dateDisplay":"February–May 2009","lat":"40.779501544521715","long":"-73.96202087402344","dateExpire":"7/31/2025"},{ "ID":"10195", "Category":"Traveling Exhibitions", "CategoryID":"1", "theDate":"", "Title":"Cast in Bronze: French Sculpture from Renaissance to Revolution ",   "city":"Los Angeles, California","country":"U.S.A.","region":"North America","dateStart":"6/1/2009","dateEnd":"9/30/2009","dateDisplay":"June–September 2009","lat":"34.0522342","long":"-118.2436849","dateExpire":"7/31/2025"},{ "ID":"10196", "Category":"Traveling Exhibitions", "CategoryID":"1", "theDate":"", "Title":"Francis Bacon: A Centenary Retrospective ",   "city":"London","country":"United Kingdom","region":"Europe","dateStart":"9/1/2008","dateEnd":"1/31/2009","dateDisplay":"September 2008–January 2009","lat":"51.5001524","long":"-0.1262362","dateExpire":"7/31/2025"},{ "ID":"10196", "Category":"Traveling Exhibitions", "CategoryID":"1", "theDate":"", "Title":"Francis Bacon: A Centenary Retrospective ",   "city":"Madrid","country":"Spain","region":"Europe","dateStart":"2/1/2009","dateEnd":"4/30/2009","dateDisplay":"February–April 2009","lat":"40.4166909","long":"-3.7003454","dateExpire":"7/31/2025"},{ "ID":"10196", "Category":"Traveling Exhibitions", "CategoryID":"1", "theDate":"", "Title":"Francis Bacon: A Centenary Retrospective ",   "city":"New York, New York","country":"U.S.A.","region":"North America","dateStart":"5/1/2009","dateEnd":"8/31/2009","dateDisplay":"May–August 2009","lat":"40.779501544521715","long":"-73.96202087402344","dateExpire":"7/31/2025"},{ "ID":"10197", "Category":"Traveling Exhibitions", "CategoryID":"1", "theDate":"", "Title":"Man, Myth, and Sensual Pleasures: Jan Gossart’s Renaissance ",   "city":"New York, New York","country":"U.S.A.","region":"North America","dateStart":"10/1/2010","dateEnd":"1/30/2011","dateDisplay":"October 2010–January 2011","lat":"40.779501544521715","long":"-73.96202087402344","dateExpire":"7/31/2025"},{ "ID":"10197", "Category":"Traveling Exhibitions", "CategoryID":"1", "theDate":"", "Title":"Man, Myth, and Sensual Pleasures: Jan Gossart’s Renaissance ",   "city":"London","country":"United Kingdom","region":"Europe","dateStart":"2/1/2011","dateEnd":"5/31/2011","dateDisplay":"February–May 2011","lat":"51.5001524","long":"-0.1262362","dateExpire":"7/31/2025"},{ "ID":"10198", "Category":"Traveling Exhibitions", "CategoryID":"1", "theDate":"", "Title":"Miró:  The Dutch Interiors ",   "city":"Amsterdam","country":"The Netherlands","region":"Europe","dateStart":"6/1/2010","dateEnd":"9/30/2010","dateDisplay":"June–September 2010","lat":"52.3730556","long":"4.8922222","dateExpire":"7/31/2025"},{ "ID":"10198", "Category":"Traveling Exhibitions", "CategoryID":"1", "theDate":"", "Title":"Miró:  The Dutch Interiors ",   "city":"New York, New York","country":"U.S.A.","region":"North America","dateStart":"10/1/2011","dateEnd":"1/31/2011","dateDisplay":"October 2010–January 2011","lat":"40.779501544521715","long":"-73.96202087402344","dateExpire":"7/31/2025"},{ "ID":"10199", "Category":"Traveling Exhibitions", "CategoryID":"1", "theDate":"", "Title":"American Impressionism and Realism: A Landmark Exhibition from the Met ",   "city":"Brisbane","country":"Australia","region":"Australia and Oceania","dateStart":"5/1/2009","dateEnd":"9/30/2009","dateDisplay":"May–September 2009","lat":"-27.4709331","long":"153.0235024","dateExpire":"7/31/2025"},{ "ID":"10200", "Category":"Traveling Exhibitions", "CategoryID":"1", "theDate":"", "Title":"Falken, Katzen, Krokodile—Tiere im Alten Agypten aus den Sammlungen des Metropolitan Museum of Art, New York, und des Agyptischen Museums, Kairo ",   "city":"Zurich","country":"Switzerland","region":"Europe","dateStart":"6/1/2010","dateEnd":"11/30/2010","dateDisplay":"June–November 2010","lat":"47.367347","long":"8.5500025","dateExpire":"7/31/2025"},{ "ID":"10201", "Category":"Traveling Exhibitions", "CategoryID":"1", "theDate":"", "Title":"Cézanne’s Card Players  ",   "city":"London","country":"United Kingdom","region":"Europe","dateStart":"10/1/2010","dateEnd":"1/31/2011","dateDisplay":"October 2010–January 2011","lat":"51.5001524","long":"-0.1262362","dateExpire":"7/31/2025"},{ "ID":"10201", "Category":"Traveling Exhibitions", "CategoryID":"1", "theDate":"", "Title":"Cézanne’s Card Players  ",   "city":"New York, New York","country":"U.S.A.","region":"North America","dateStart":"2/1/2011","dateEnd":"5/30/2011","dateDisplay":"February–May 2011","lat":"40.779501544521715","long":"-73.96202087402344","dateExpire":"7/31/2025"},{ "ID":"10010", "Category":"Traveling Exhibitions", "CategoryID":"1", "theDate":"", "Title":"The Art of Illumination: The Limbourg Brothers and the Belles Heures of Jean de France, Duc de Berry ",   "city":"Paris","country":"France","region":"Europe","dateStart":"3/1/2012","dateEnd":"6/30/2012","dateDisplay":"March–June 2012","lat":"48.856614","long":"2.3522219","dateExpire":"7/31/2025"},{ "ID":"10262", "Category":"Traveling Exhibitions", "CategoryID":"1", "theDate":"", "Title":"Duncan Phyfe: Master Cabinetmaker in New York ",   "city":"New York, New York","country":"U.S.A.","region":"North America","dateStart":"12/1/2011","dateEnd":"5/31/2012","dateDisplay":"December 2011–May 2012","lat":"40.779501544521715","long":"-73.96202087402344","dateExpire":"7/31/2025"},{ "ID":"10262", "Category":"Traveling Exhibitions", "CategoryID":"1", "theDate":"", "Title":"Duncan Phyfe: Master Cabinetmaker in New York ",   "city":"Houston, Texas","country":"U.S.A.","region":"North America","dateStart":"6/20/2012","dateEnd":"9/11/2012","dateDisplay":"June–September 2012","lat":"29.7601927","long":"-95.3693896","dateExpire":"7/31/2025"},{ "ID":"10263", "Category":"Traveling Exhibitions", "CategoryID":"1", "theDate":"", "Title":"Chinese Art in the Age of Revolution: Fu Baoshi (1904–1965) ",   "city":"Cleveland, Ohio","country":"U.S.A.","region":"North America","dateStart":"10/16/2011","dateEnd":"1/8/2012","dateDisplay":"October 2011–January 2012","lat":"41.4994954","long":"-81.6954088","dateExpire":"7/31/2025"},{ "ID":"10263", "Category":"Traveling Exhibitions", "CategoryID":"1", "theDate":"", "Title":"Chinese Art in the Age of Revolution: Fu Baoshi (1904–1965) ",   "city":"New York, New York","country":"U.S.A.","region":"North America","dateStart":"1/1/2012","dateEnd":"4/30/2012","dateDisplay":"January–April 2012","lat":"40.779501544521715","long":"-73.96202087402344","dateExpire":"7/31/2025"},{ "ID":"10264", "Category":"Traveling Exhibitions", "CategoryID":"1", "theDate":"", "Title":"Regarding Warhol: Sixty Artists, Fifty Years ",   "city":"New York, New York","country":"U.S.A.","region":"North America","dateStart":"9/1/2012","dateEnd":"12/31/2012","dateDisplay":"September–December 2012","lat":"40.779501544521715","long":"-73.96202087402344","dateExpire":"7/31/2025"},{ "ID":"10264", "Category":"Traveling Exhibitions", "CategoryID":"1", "theDate":"", "Title":"Regarding Warhol: Sixty Artists, Fifty Years ",   "city":"Pittsburgh, Pennsylvania","country":"U.S.A.","region":"North America","dateStart":"2/1/2011","dateEnd":"4/30/2013","dateDisplay":"February–April 2012","lat":"40.4406248","long":"-79.9958864","dateExpire":"7/31/2025"},{ "ID":"10265", "Category":"Traveling Exhibitions", "CategoryID":"1", "theDate":"", "Title":"Bernini: Sculpting in Clay ",   "city":"New York, New York","country":"U.S.A.","region":"North America","dateStart":"10/1/2012","dateEnd":"12/31/2012","dateDisplay":"October 2012–January 2013","lat":"40.779501544521715","long":"-73.96202087402344","dateExpire":"7/31/2025"},{ "ID":"10265", "Category":"Traveling Exhibitions", "CategoryID":"1", "theDate":"", "Title":"Bernini: Sculpting in Clay ",   "city":"Fort Worth, Texas","country":"U.S.A.","region":"North America","dateStart":"2/1/2013","dateEnd":"4/30/2013","dateDisplay":"February–April 2013","lat":"32.725409","long":"-97.3208496","dateExpire":"7/31/2025"},{ "ID":"10266", "Category":"Traveling Exhibitions", "CategoryID":"1", "theDate":"", "Title":"Faking It: Manipulated Photography Before Photoshop ",   "city":"New York, New York","country":"U.S.A.","region":"North America","dateStart":"10/1/2012","dateEnd":"1/31/2013","dateDisplay":"October 2012–January 2013","lat":"40.779501544521715","long":"-73.96202087402344","dateExpire":"7/31/2025"},{ "ID":"10266", "Category":"Traveling Exhibitions", "CategoryID":"1", "theDate":"", "Title":"Faking It: Manipulated Photography Before Photoshop ",   "city":"Washington, D.C.","country":"U.S.A.","region":"North America","dateStart":"2/1/2013","dateEnd":"5/31/2013","dateDisplay":"February–May 2013","lat":"38.8951118","long":"-77.0363658","dateExpire":"7/31/2025"},{ "ID":"10266", "Category":"Traveling Exhibitions", "CategoryID":"1", "theDate":"", "Title":"Faking It: Manipulated Photography Before Photoshop ",   "city":"Houston, Texas","country":"U.S.A.","region":"North America","dateStart":"6/1/2013","dateEnd":"8/31/2013","dateDisplay":"June–August 2013","lat":"29.7601927","long":"-95.3693896","dateExpire":"7/31/2025"},{ "ID":"10267", "Category":"Traveling Exhibitions", "CategoryID":"1", "theDate":"", "Title":"Salvaging the Past: Georges Hoentschel and French Decorative Arts at The Metropolitan Museum of Art ",   "city":"New York, New York","country":"U.S.A.","region":"North America","dateStart":"4/1/2013","dateEnd":"8/31/2013","dateDisplay":"April–August 2013","lat":"40.779501544521715","long":"-73.96202087402344","dateExpire":"7/31/2025"},{ "ID":"10268", "Category":"Traveling Exhibitions", "CategoryID":"1", "theDate":"", "Title":"The Civil War and American Art ",   "city":"Washington, D.C.","country":"U.S.A.","region":"North America","dateStart":"11/1/2012","dateEnd":"4/30/2013","dateDisplay":"November 2012–April 2013","lat":"38.8951118","long":"-77.0363658","dateExpire":"7/31/2025"},{ "ID":"10268", "Category":"Traveling Exhibitions", "CategoryID":"1", "theDate":"", "Title":"The Civil War and American Art ",   "city":"New York, New York","country":"U.S.A.","region":"North America","dateStart":"5/1/2013","dateEnd":"9/30/2013","dateDisplay":"May–September 2013","lat":"40.779501544521715","long":"-73.96202087402344","dateExpire":"7/31/2025"},{ "ID":"10269", "Category":"Traveling Exhibitions", "CategoryID":"1", "theDate":"", "Title":"Ken Price Sculpture: A Retrospective ",   "city":"Los Angeles, California","country":"U.S.A.","region":"North America","dateStart":"9/1/2012","dateEnd":"1/1/2013","dateDisplay":"September 2012–January 2013","lat":"34.0522342","long":"-118.2436849","dateExpire":"7/31/2025"},{ "ID":"10269", "Category":"Traveling Exhibitions", "CategoryID":"1", "theDate":"", "Title":"Ken Price Sculpture: A Retrospective ",   "city":"Dallas, Texas","country":"U.S.A.","region":"North America","dateStart":"2/1/2013","dateEnd":"5/31/2013","dateDisplay":"February–May 2013","lat":"32.802955","long":"-96.769923","dateExpire":"7/31/2025"},{ "ID":"10269", "Category":"Traveling Exhibitions", "CategoryID":"1", "theDate":"", "Title":"Ken Price Sculpture: A Retrospective ",   "city":"New York, New York","country":"U.S.A.","region":"North America","dateStart":"6/1/2013","dateEnd":"9/1/2013","dateDisplay":"June–September 2013","lat":"40.779501544521715","long":"-73.96202087402344","dateExpire":"7/31/2025"},{ "ID":"10011", "Category":"Traveling Exhibitions", "CategoryID":"1", "theDate":"", "Title":"Earth, Sea, and Sky: Nature in Western Art—Masterpieces from The Metropolitan Museum of Art ",   "city":"Beijing","country":"China","region":"Asia","dateStart":"2/1/2013","dateEnd":"5/31/2013","dateDisplay":"February–May 2013","lat":"39.904214","long":"116.407413","dateExpire":"5/31/2013"},{ "ID":"10066", "Category":"Traveling Works of Art", "CategoryID":"2", "theDate":"", "Title":"[Permanent Loan] ",   "city":"Saint-Roch","country":"France","region":"Europe","dateStart":"4/22/1992","dateEnd":"","dateDisplay":"April, 1992–present","lat":"47.4452939","long":"0.579223","dateExpire":"12/31/2012"},{ "ID":"10067", "Category":"Traveling Works of Art", "CategoryID":"2", "theDate":"", "Title":"[Permanent Loan] ",   "city":"Paris","country":"France","region":"Europe","dateStart":"6/6/1977","dateEnd":"","dateDisplay":"June 1977–present","lat":"48.856614","long":"2.3522219","dateExpire":"12/31/2012"},{ "ID":"10068", "Category":"Traveling Works of Art", "CategoryID":"2", "theDate":"", "Title":"[Long-Term Loan] ",   "city":"Paris","country":"France","region":"Europe","dateStart":"10/15/2010","dateEnd":"10/15/2014","dateDisplay":"October 15, 2010–October 15, 2014","lat":"48.856614","long":"2.3522219","dateExpire":"12/31/2012"},{ "ID":"10069", "Category":"Traveling Works of Art", "CategoryID":"2", "theDate":"", "Title":"[Permanent Loan] ",   "city":"Rome","country":"Italy","region":"Europe","dateStart":"2/22/1989","dateEnd":"","dateDisplay":"February 1989–present","lat":"41.8905198","long":"12.4942486","dateExpire":"12/31/2012"},{ "ID":"10070", "Category":"Traveling Works of Art", "CategoryID":"2", "theDate":"", "Title":"[Long-Term Loan] ",   "city":"Leiden","country":"The Netherlands","region":"Europe","dateStart":"5/16/2011","dateEnd":"1/15/2015","dateDisplay":"May 16, 2011–January 15, 2015","lat":"52.1603216","long":"4.4939262","dateExpire":"12/31/2012"},{ "ID":"10071", "Category":"Traveling Works of Art", "CategoryID":"2", "theDate":"", "Title":"[Permanent Loan] ",   "city":"London","country":"United Kingdom","region":"Europe","dateStart":"5/17/1984","dateEnd":"","dateDisplay":"May 1984–present","lat":"51.5001524","long":"-0.1262362","dateExpire":"12/31/2012"},{ "ID":"10072", "Category":"Traveling Works of Art", "CategoryID":"2", "theDate":"", "Title":"[Permanent Loan] ",   "city":"Berlin","country":"Germany","region":"Europe","dateStart":"8/18/1995","dateEnd":"","dateDisplay":"August 1995–present","lat":"52.5234051","long":"13.4113999","dateExpire":"12/31/2012"},{ "ID":"10073", "Category":"Traveling Works of Art", "CategoryID":"2", "theDate":"", "Title":"[Permanent Loan] ",   "city":"Berlin","country":"Germany","region":"Europe","dateStart":"9/11/1996","dateEnd":"","dateDisplay":"September 1996–present","lat":"52.5234051","long":"13.4113999","dateExpire":"12/31/2012"},{ "ID":"10074", "Category":"Traveling Works of Art", "CategoryID":"2", "theDate":"", "Title":"[Permanent Loan] ",   "city":"Munich","country":"Germany","region":"Europe","dateStart":"6/20/2005","dateEnd":"","dateDisplay":"June 2005–present","lat":"48.1391265","long":"11.5801863","dateExpire":"12/31/2012"},{ "ID":"10075", "Category":"Traveling Works of Art", "CategoryID":"2", "theDate":"", "Title":"[Permanent Loan] ",   "city":"Memelsdorf","country":"Germany","region":"Europe","dateStart":"","dateEnd":"","dateDisplay":"","lat":"49.9328975","long":"10.9532624","dateExpire":"12/31/2012"},{ "ID":"10076", "Category":"Traveling Works of Art", "CategoryID":"2", "theDate":"", "Title":"[Permanent Loan] ",   "city":"Madrid","country":"Spain","region":"Europe","dateStart":"10/22/1957","dateEnd":"","dateDisplay":"October 1957–present","lat":"40.4166909","long":"-3.7003454","dateExpire":"12/31/2012"},{ "ID":"10077", "Category":"Traveling Works of Art", "CategoryID":"2", "theDate":"", "Title":"[Permanent Loan] ",   "city":"Madrid","country":"Spain","region":"Europe","dateStart":"5/2/2000","dateEnd":"","dateDisplay":"May 2000–present","lat":"40.4166909","long":"-3.7003454","dateExpire":"12/31/2012"},{ "ID":"10227", "Category":"Traveling Works of Art", "CategoryID":"2", "theDate":"", "Title":"Secret of the Snake ",   "city":"Berg en Dal","country":"The Netherlands","region":"Europe","dateStart":"4/1/2012","dateEnd":"11/5/2012","dateDisplay":"April 1–November 5, 2012","lat":"51.8181209","long":"5.9200815","dateExpire":"11/30/2012"},{ "ID":"10235", "Category":"Traveling Works of Art", "CategoryID":"2", "theDate":"", "Title":"FRIEDERISIKO ",   "city":"Postdam","country":"Germany","region":"Europe","dateStart":"4/28/2012","dateEnd":"10/28/2012","dateDisplay":"April 28–October 28, 2012","lat":"52.3968507","long":"13.0584812","dateExpire":"10/31/2012"},{ "ID":"10276", "Category":"Traveling Works of Art", "CategoryID":"2", "theDate":"", "Title":"Aesthetic Ambitions: Edward Lycett and Brooklyn's Faience Manufacturing Company ",   "city":"Brooklyn, New York","country":"U.S.A.","region":"North America","dateStart":"5/3/2012","dateEnd":"6/16/2013","dateDisplay":"May 3, 2012–June 16, 2013","lat":"40.65","long":"-73.95","dateExpire":"6/30/2013"},{ "ID":"10281", "Category":"Traveling Works of Art", "CategoryID":"2", "theDate":"", "Title":"Shark! ",   "city":"Fort Lauderdale, Florida","country":"U.S.A.","region":"North America","dateStart":"5/13/2012","dateEnd":"11/14/2012","dateDisplay":"May 13–November 14, 2012","lat":"26.1223084","long":"-80.1433786","dateExpire":"11/30/2012"},{ "ID":"10283", "Category":"Traveling Works of Art", "CategoryID":"2", "theDate":"", "Title":"Deacon Peckham's Hobby Horse ",   "city":"Washington, D.C.","country":"U.S.A.","region":"North America","dateStart":"5/27/2012","dateEnd":"10/8/2012","dateDisplay":"May 27–October 8, 2012","lat":"38.8951118","long":"-77.0363658","dateExpire":"10/31/2012"},{ "ID":"10287", "Category":"Traveling Works of Art", "CategoryID":"2", "theDate":"", "Title":"George Bellows (1882–1925) ",   "city":"Washington, D.C.","country":"U.S.A.","region":"North America","dateStart":"6/10/2012","dateEnd":"10/8/2012","dateDisplay":"June 10–October 8, 2012","lat":"38.8951118","long":"-77.0363658","dateExpire":"10/31/2012"},{ "ID":"10288", "Category":"Traveling Works of Art", "CategoryID":"2", "theDate":"", "Title":"Caribbean: Crossroads of the World ",   "city":"New York, New York","country":"U.S.A.","region":"North America","dateStart":"6/12/2012","dateEnd":"1/13/2013","dateDisplay":"June 12, 2012–January 13, 2013","lat":"40.779501544521715","long":"-73.96202087402344","dateExpire":"1/31/2013"},{ "ID":"10289", "Category":"Traveling Works of Art", "CategoryID":"2", "theDate":"", "Title":"Caribbean: Crossroads of the World ",   "city":"Queens, New York","country":"U.S.A.","region":"North America","dateStart":"6/12/2012","dateEnd":"1/13/2013","dateDisplay":"June 12, 2012–January 13, 2013","lat":"40.7282239","long":"-73.7948516","dateExpire":"1/31/2013"},{ "ID":"10290", "Category":"Traveling Works of Art", "CategoryID":"2", "theDate":"", "Title":"Caribbean: Crossroads of the World ",   "city":"New York, New York","country":"U.S.A.","region":"North America","dateStart":"6/12/2012","dateEnd":"1/13/2013","dateDisplay":"June 12, 2012–January 13, 2013","lat":"40.779501544521715","long":"-73.96202087402344","dateExpire":"1/31/2013"},{ "ID":"10292", "Category":"Traveling Works of Art", "CategoryID":"2", "theDate":"", "Title":"1812: A Nation Emerges ",   "city":"Washington, D.C.","country":"U.S.A.","region":"North America","dateStart":"6/15/2012","dateEnd":"1/27/2013","dateDisplay":"June 15, 2012–January 27, 2013","lat":"38.8951118","long":"-77.0363658","dateExpire":"1/31/2013"},{ "ID":"10293", "Category":"Traveling Works of Art", "CategoryID":"2", "theDate":"", "Title":"The Lure of Ancient Egypt ",   "city":"Utica, New York","country":"U.S.A.","region":"North America","dateStart":"6/16/2012","dateEnd":"10/12/2012","dateDisplay":"June 16–October 12, 2012","lat":"43.100903","long":"-75.232664","dateExpire":"10/31/2012"},{ "ID":"10294", "Category":"Traveling Works of Art", "CategoryID":"2", "theDate":"", "Title":"African Cosmos: Stellar Arts ",   "city":"Washington, D.C.","country":"U.S.A.","region":"North America","dateStart":"6/20/2012","dateEnd":"12/9/2012","dateDisplay":"June 20–December 9, 2012","lat":"38.8951118","long":"-77.0363658","dateExpire":"12/31/2012"},{ "ID":"10300", "Category":"Traveling Works of Art", "CategoryID":"2", "theDate":"", "Title":"Marc Chagall ",   "city":"Roslyn Harbor, New York","country":"U.S.A.","region":"North America","dateStart":"7/21/2012","dateEnd":"11/4/2012","dateDisplay":"July 21–November 4, 2012","lat":"40.8164891","long":"-73.6370727","dateExpire":"11/30/2012"},{ "ID":"10301", "Category":"Traveling Works of Art", "CategoryID":"2", "theDate":"", "Title":"Messerschmidt and Modernism ",   "city":"Los Angeles, California","country":"U.S.A.","region":"North America","dateStart":"7/24/2012","dateEnd":"10/14/2012","dateDisplay":"July 24–October 14, 2012","lat":"34.0522342","long":"-118.2436849","dateExpire":"10/31/2012"},{ "ID":"10302", "Category":"Traveling Works of Art", "CategoryID":"2", "theDate":"", "Title":"Children of the Plumed Serpent: The Legacy of Quetzalcoatl in Ancient Mexico ",   "city":"Dallas, Texas","country":"U.S.A.","region":"North America","dateStart":"7/29/2012","dateEnd":"11/25/2012","dateDisplay":"July 29–November 25, 2012","lat":"32.802955","long":"-96.769923","dateExpire":"11/30/2012"},{ "ID":"10303", "Category":"Traveling Works of Art", "CategoryID":"2", "theDate":"", "Title":"Men of Fire: Jose Clemente Orozco and Jackson Pollock ",   "city":"East Hampton, New York","country":"U.S.A.","region":"North America","dateStart":"8/2/2012","dateEnd":"10/27/2012","dateDisplay":"August 2–October 27, 2012","lat":"40.9634335","long":"-72.1848009","dateExpire":"10/31/2012"},{ "ID":"10307", "Category":"Traveling Works of Art", "CategoryID":"2", "theDate":"", "Title":"Roger Vivier: The Fabergé of Footwear ",   "city":"Ontario","country":"Canada","region":"North America","dateStart":"5/8/2012","dateEnd":"4/28/2013","dateDisplay":"May 8, 2012–April 28, 2013","lat":"51.253775","long":"-85.3232139","dateExpire":"4/30/2013"},{ "ID":"10311", "Category":"Traveling Works of Art", "CategoryID":"2", "theDate":"", "Title":"Maya Royalty ",   "city":"Gatineau","country":"Canada","region":"North America","dateStart":"5/17/2012","dateEnd":"10/28/2012","dateDisplay":"May 17–October 28, 2012","lat":"45.4765446","long":"-75.7012723","dateExpire":"10/31/2012"},{ "ID":"10323", "Category":"Traveling Works of Art", "CategoryID":"2", "theDate":"", "Title":"Turner, Monet, Twombly ",   "city":"Liverpool","country":"United Kingdom","region":"Europe","dateStart":"6/22/2012","dateEnd":"10/14/2012","dateDisplay":"June 22–October 14, 2012","lat":"53.4083714","long":"-2.9915726","dateExpire":"10/31/2012"},{ "ID":"10324", "Category":"Traveling Works of Art", "CategoryID":"2", "theDate":"", "Title":"Caravage et le caravagisme europeen ",   "city":"Montpelier","country":"France","region":"Europe","dateStart":"6/22/2012","dateEnd":"10/14/2012","dateDisplay":"June 22–October 14, 2012","lat":"43.6066344","long":"3.8789227","dateExpire":"10/31/2012"},{ "ID":"10327", "Category":"Traveling Works of Art", "CategoryID":"2", "theDate":"", "Title":"Henri Matisse: Pair/impair ",   "city":"Copenhagen","country":"Denmark","region":"Europe","dateStart":"7/14/2012","dateEnd":"10/28/2012","dateDisplay":"July 14–October 28, 2012","lat":"55.6760968","long":"12.5683371","dateExpire":"10/31/2012"},{ "ID":"10328", "Category":"Traveling Works of Art", "CategoryID":"2", "theDate":"", "Title":"Les Maîtres du désordre ",   "city":"Bonn","country":"Germany","region":"Europe","dateStart":"8/31/2012","dateEnd":"12/12/2012","dateDisplay":"August 31–December 12, 2012","lat":"50.7327045","long":"7.0963113","dateExpire":"12/31/2012"},{ "ID":"10329", "Category":"Traveling Works of Art", "CategoryID":"2", "theDate":"", "Title":"1912: Mission Moderne ",   "city":"Cologne","country":"Germany","region":"Europe","dateStart":"8/31/2012","dateEnd":"12/31/2012","dateDisplay":"August 31–December 12, 2012","lat":"50.9406645","long":"6.9599115","dateExpire":"12/31/2012"},{ "ID":"10330", "Category":"Traveling Works of Art", "CategoryID":"2", "theDate":"", "Title":"Emperor Maximilian I ",   "city":"Vienna","country":"Austria","region":"Europe","dateStart":"9/13/2012","dateEnd":"1/13/2013","dateDisplay":"September 13, 2012–January 13, 2013","lat":"48.2081743","long":"16.3738189","dateExpire":"1/31/2013"},{ "ID":"10331", "Category":"Traveling Works of Art", "CategoryID":"2", "theDate":"", "Title":"Rembrandt and the Passion ",   "city":"Glasgow","country":"United Kingdom","region":"Europe","dateStart":"9/15/2012","dateEnd":"12/2/2012","dateDisplay":"September 15–December 2, 2012","lat":"55.864237","long":"-4.251806","dateExpire":"12/31/2012"},{ "ID":"10332", "Category":"Traveling Works of Art", "CategoryID":"2", "theDate":"", "Title":"Bronze ",   "city":"London","country":"United Kingdom","region":"Europe","dateStart":"9/15/2012","dateEnd":"12/9/2012","dateDisplay":"September 15–December 9, 2012","lat":"51.5001524","long":"-0.1262362","dateExpire":"12/31/2012"},{ "ID":"10333", "Category":"Traveling Works of Art", "CategoryID":"2", "theDate":"", "Title":"From Impressionism to Modern Art: Collectors of Avant-Garde in Le Havre ",   "city":"Paris","country":"France","region":"Europe","dateStart":"9/19/2012","dateEnd":"1/6/2013","dateDisplay":"September 19, 2012–January 6, 2013","lat":"48.856614","long":"2.3522219","dateExpire":"1/31/2013"},{ "ID":"10334", "Category":"Traveling Works of Art", "CategoryID":"2", "theDate":"", "Title":"Bohèmes ",   "city":"Paris","country":"France","region":"Europe","dateStart":"9/24/2012","dateEnd":"1/14/2013","dateDisplay":"September 24, 2012–January 14, 2013","lat":"48.856614","long":"2.3522219","dateExpire":"1/31/2013"},{ "ID":"10335", "Category":"Traveling Works of Art", "CategoryID":"2", "theDate":"", "Title":"Impressionism, Fashion, and Modernity ",   "city":"Paris","country":"France","region":"Europe","dateStart":"9/24/2012","dateEnd":"1/20/2013","dateDisplay":"September 24, 2012–January 20, 2013","lat":"48.856614","long":"2.3522219","dateExpire":"1/31/2013"},{ "ID":"10336", "Category":"Traveling Works of Art", "CategoryID":"2", "theDate":"", "Title":"Royalists to Romantics ",   "city":"Stockholm","country":"Sweden","region":"Europe","dateStart":"9/27/2012","dateEnd":"1/20/2013","dateDisplay":"September 27, 2012–January 20, 2013","lat":"59.3327881","long":"18.0644881","dateExpire":"1/31/2013"},{ "ID":"10337", "Category":"Traveling Works of Art", "CategoryID":"2", "theDate":"", "Title":"Francesco Guardi (1712–1793): Commemorating the Third Centenary of the Artist's Birth ",   "city":"Venice","country":"Italy","region":"Europe","dateStart":"9/28/2012","dateEnd":"1/27/2013","dateDisplay":"September 28, 2012–January 27, 2013","lat":"45.4343363","long":"12.3387844","dateExpire":"1/31/2013"},{ "ID":"10338", "Category":"Traveling Works of Art", "CategoryID":"2", "theDate":"", "Title":"Camille Corot ",   "city":"Karlsruhe","country":"Germany","region":"Europe","dateStart":"9/28/2012","dateEnd":"1/6/2013","dateDisplay":"September 28, 2012–January 6, 2013","lat":"49.009148","long":"8.3799444","dateExpire":"1/31/2013"},{ "ID":"10339", "Category":"Traveling Works of Art", "CategoryID":"2", "theDate":"", "Title":"The Magical City ",   "city":"Lille","country":"France","region":"Europe","dateStart":"9/29/2012","dateEnd":"1/13/2013","dateDisplay":"September 29, 2013–January 13, 2013","lat":"50.62925","long":"3.057256","dateExpire":"1/31/2013"},{ "ID":"10340", "Category":"Traveling Works of Art", "CategoryID":"2", "theDate":"", "Title":"The Ecstasy of Color: Munch, Matisse, and the Expressionists ",   "city":"Essen","country":"Germany","region":"Europe","dateStart":"9/29/2012","dateEnd":"1/20/2013","dateDisplay":"September 29, 2012–January 20, 2013","lat":"51.4556432","long":"7.0115552","dateExpire":"1/31/2013"},{ "ID":"10341", "Category":"Traveling Works of Art", "CategoryID":"2", "theDate":"", "Title":"Degas: The Late Work ",   "city":"Basel","country":"Switzerland","region":"Europe","dateStart":"9/30/2012","dateEnd":"1/27/2013","dateDisplay":"September 30, 2012–January 27, 2013","lat":"47.557421","long":"7.5925727","dateExpire":"1/31/2013"},{ "ID":"10342", "Category":"Traveling Works of Art", "CategoryID":"2", "theDate":"", "Title":"Encounters with the 1930s ",   "city":"Madrid","country":"Spain","region":"Europe","dateStart":"10/2/2012","dateEnd":"1/7/2013","dateDisplay":"October 2, 2012–January 7, 2013","lat":"40.4166909","long":"-3.7003454","dateExpire":"1/31/2013"},{ "ID":"10343", "Category":"Traveling Works of Art", "CategoryID":"2", "theDate":"", "Title":"Chaim Soutine (1893–1943), l'ordre du chaos ",   "city":"Paris","country":"France","region":"Europe","dateStart":"10/2/2012","dateEnd":"1/21/2013","dateDisplay":"October 2, 2012–January 21, 2013","lat":"48.856614","long":"2.3522219","dateExpire":"1/31/2013"},{ "ID":"10344", "Category":"Traveling Works of Art", "CategoryID":"2", "theDate":"", "Title":"Edward Hopper ",   "city":"Paris","country":"France","region":"Europe","dateStart":"10/5/2012","dateEnd":"1/28/2013","dateDisplay":"October 5, 2012–January 28, 2013","lat":"48.856614","long":"2.3522219","dateExpire":"1/31/2013"},{ "ID":"10345", "Category":"Traveling Works of Art", "CategoryID":"2", "theDate":"", "Title":"Earth, Sea, and Sky: Nature in Western Art—Masterpieces from The Metropolitan Museum of Art ",   "city":"Tokyo","country":"Japan","region":"Asia","dateStart":"10/6/2012","dateEnd":"1/4/2013","dateDisplay":"October 6, 2012–January 4, 2013","lat":"35.6894875","long":"139.6917064","dateExpire":"1/31/2013"},{ "ID":"10346", "Category":"Traveling Works of Art", "CategoryID":"2", "theDate":"", "Title":"Late Raphael ",   "city":"Paris","country":"France","region":"Europe","dateStart":"10/8/2012","dateEnd":"1/14/2013","dateDisplay":"October 8, 2012–January 14, 2013","lat":"48.856614","long":"2.3522219","dateExpire":"1/31/2013"},{ "ID":"10347", "Category":"Traveling Works of Art", "CategoryID":"2", "theDate":"", "Title":"Voyage to the Exotic: Homage to Gauguin ",   "city":"Madrid","country":"Spain","region":"Europe","dateStart":"10/9/2012","dateEnd":"1/13/2013","dateDisplay":"October 9, 2012–January 13, 2013","lat":"40.4166909","long":"-3.7003454","dateExpire":"1/31/2013"},{ "ID":"10348", "Category":"Traveling Works of Art", "CategoryID":"2", "theDate":"", "Title":"The Art of the War—France 1938–1947—from Picasso to Dubuffet ",   "city":"Paris","country":"France","region":"Europe","dateStart":"10/15/2012","dateEnd":"2/15/2013","dateDisplay":"October 15, 2012–February 15, 2013","lat":"48.856614","long":"2.3522219","dateExpire":"2/28/2013"},{ "ID":"10349", "Category":"Traveling Works of Art", "CategoryID":"2", "theDate":"", "Title":"Marguerite Yourcenar and Flemish Painting ",   "city":"Cassel","country":"France","region":"Europe","dateStart":"10/15/2012","dateEnd":"1/27/2013","dateDisplay":"October 15, 2012–January 27, 2013","lat":"50.8000619","long":"2.486235","dateExpire":"1/31/2013"},{ "ID":"10350", "Category":"Traveling Works of Art", "CategoryID":"2", "theDate":"", "Title":"El Greco's Visual Poetics ",   "city":"Osaka","country":"Japan","region":"Asia","dateStart":"10/16/2012","dateEnd":"12/24/2012","dateDisplay":"October 16–December 24, 2012","lat":"34.6937378","long":"135.5021651","dateExpire":"12/31/2012"},{ "ID":"10351", "Category":"Traveling Works of Art", "CategoryID":"2", "theDate":"", "Title":"The Invited Work: Diego Velázquez, Portrait of a Man ",   "city":"Madrid","country":"Spain","region":"Europe","dateStart":"10/18/2012","dateEnd":"1/23/2013","dateDisplay":"October 18, 2012–January 23, 2013","lat":"40.4166909","long":"-3.7003454","dateExpire":"1/31/2013"},{ "ID":"10352", "Category":"Traveling Works of Art", "CategoryID":"2", "theDate":"", "Title":"Johannes Vermeer and the Delft School ",   "city":"Rome","country":"Italy","region":"Europe","dateStart":"10/18/2012","dateEnd":"1/20/2013","dateDisplay":"October 18, 2012–January 20, 2013","lat":"41.8905198","long":"12.4942486","dateExpire":"1/31/2013"},{ "ID":"10353", "Category":"Traveling Works of Art", "CategoryID":"2", "theDate":"", "Title":"Akbar: The Great Emperor of India ",   "city":"Rome","country":"Italy","region":"Europe","dateStart":"10/22/2012","dateEnd":"2/3/2013","dateDisplay":"October 22, 2012–February 3, 2013","lat":"41.8905198","long":"12.4942486","dateExpire":"2/28/2013"},{ "ID":"10354", "Category":"Traveling Works of Art", "CategoryID":"2", "theDate":"", "Title":"Chypre médévale: entre Byzance, l'Orient et l'Occident ",   "city":"Paris","country":"France","region":"Europe","dateStart":"10/24/2012","dateEnd":"1/18/2013","dateDisplay":"October 24, 2012–January 18, 2013","lat":"48.856614","long":"2.3522219","dateExpire":"1/31/2013"},{ "ID":"10355", "Category":"Traveling Works of Art", "CategoryID":"2", "theDate":"", "Title":"Cézanne and the Past: Tradition and Creation ",   "city":"Budapest","country":"Hungary","region":"Europe","dateStart":"10/25/2012","dateEnd":"1/17/2013","dateDisplay":"October 25, 2012–January 17, 2013","lat":"47.4984056","long":"19.0407578","dateExpire":"1/17/2013"},{ "ID":"10356", "Category":"Traveling Works of Art", "CategoryID":"2", "theDate":"", "Title":"Europa Jagellonica: Art and Culture in Central Europe under the Rule of the Jagiellonian Dynasty, 1386–1572 ",   "city":"Warsaw","country":"Poland","region":"Europe","dateStart":"10/26/2012","dateEnd":"1/27/2013","dateDisplay":"October 26, 2012–January 27, 2013","lat":"52.2296756","long":"21.0122287","dateExpire":"1/31/2013"},{ "ID":"10357", "Category":"Traveling Works of Art", "CategoryID":"2", "theDate":"", "Title":"The Studio: Workshop and Myth ",   "city":"Stuttgart","country":"Germany","region":"Europe","dateStart":"10/27/2012","dateEnd":"2/10/2013","dateDisplay":"October 27, 2012–February 10, 2013","lat":"48.7771056","long":"9.1807688","dateExpire":"2/28/2013"},{ "ID":"10358", "Category":"Traveling Works of Art", "CategoryID":"2", "theDate":"", "Title":"Martin Rico ",   "city":"Madrid","country":"Spain","region":"Europe","dateStart":"10/30/2012","dateEnd":"2/10/2013","dateDisplay":"October 30, 2012–February 10, 2013","lat":"40.4166909","long":"-3.7003454","dateExpire":"2/28/2013"},{ "ID":"10360", "Category":"Traveling Works of Art", "CategoryID":"2", "theDate":"", "Title":"Signed, Jan R. ",   "city":"Leuven","country":"Belgium","region":"Europe","dateStart":"11/8/2012","dateEnd":"2/17/2013","dateDisplay":"November 8, 2012–February 17, 2013","lat":"50.877571","long":"4.704328","dateExpire":"2/28/2013"},{ "ID":"10361", "Category":"Traveling Works of Art", "CategoryID":"2", "theDate":"", "Title":"Raphael as Draughtsman ",   "city":"Frankfurt","country":"Germany","region":"Europe","dateStart":"11/8/2012","dateEnd":"2/3/2013","dateDisplay":"November 8, 2013–February 13, 2013","lat":"50.1114451","long":"8.6806154","dateExpire":"2/28/2013"},{ "ID":"10362", "Category":"Traveling Works of Art", "CategoryID":"2", "theDate":"", "Title":"Central Nigeria Unmasked: Arts of the Benue RIver Valley ",   "city":"Paris","country":"France","region":"Europe","dateStart":"11/12/2012","dateEnd":"1/27/2013","dateDisplay":"November 12, 2012–January 27, 2013","lat":"48.856614","long":"2.3522219","dateExpire":"2/28/2013"},{ "ID":"10363", "Category":"Traveling Works of Art", "CategoryID":"2", "theDate":"", "Title":"Versailles et l'Antique ",   "city":"Versailles","country":"France","region":"Europe","dateStart":"11/12/2012","dateEnd":"3/17/2013","dateDisplay":"November 12, 2012–March 17, 2013","lat":"48.801408","long":"2.130122","dateExpire":"3/31/2013"},{ "ID":"10364", "Category":"Traveling Works of Art", "CategoryID":"2", "theDate":"", "Title":"Francis Bacon: Five Decades ",   "city":"Sydney","country":"Australia","region":"Australia and Oceania","dateStart":"11/17/2012","dateEnd":"2/17/2013","dateDisplay":"November 17, 2012–February 17, 2013","lat":"-33.873651","long":"151.2068896","dateExpire":"2/28/2013"},{ "ID":"10365", "Category":"Traveling Works of Art", "CategoryID":"2", "theDate":"", "Title":"Dali, le mythe ",   "city":"Paris","country":"France","region":"Europe","dateStart":"11/21/2012","dateEnd":"3/25/2013","dateDisplay":"November 21, 2012–March 25, 2013","lat":"48.856614","long":"2.3522219","dateExpire":"3/31/2013"},{ "ID":"10366", "Category":"Traveling Works of Art", "CategoryID":"2", "theDate":"", "Title":"Chavin: Arrival of the Gods in the Andes ",   "city":"Zurich","country":"Switzerland","region":"Europe","dateStart":"11/24/2012","dateEnd":"3/10/2013","dateDisplay":"November 24, 2012–March 10, 2013","lat":"47.367347","long":"8.5500025","dateExpire":"3/31/2013"},{ "ID":"10367", "Category":"Traveling Works of Art", "CategoryID":"2", "theDate":"", "Title":"Les Atouts du Hassard: Jeux de la Babylone antique a l'Occident Medieval ",   "city":"Paris","country":"France","region":"Europe","dateStart":"11/28/2012","dateEnd":"3/18/2013","dateDisplay":"November 18, 2012–March 18, 2013","lat":"48.856614","long":"2.3522219","dateExpire":"3/31/2013"},{ "ID":"10368", "Category":"Traveling Works of Art", "CategoryID":"2", "theDate":"", "Title":"Before the Flood ",   "city":"Barcelona","country":"Spain","region":"Europe","dateStart":"11/29/2012","dateEnd":"2/24/2013","dateDisplay":"November 29, 2012–February 24, 2013","lat":"41.387917","long":"2.1699187","dateExpire":"2/28/2013"},{ "ID":"10369", "Category":"Traveling Works of Art", "CategoryID":"2", "theDate":"", "Title":"Tiepolo ",   "city":"Codroipo","country":"Italy","region":"Europe","dateStart":"12/3/2012","dateEnd":"4/1/2013","dateDisplay":"December 2, 2012–April 1, 2013","lat":"45.9613936","long":"12.9767813","dateExpire":"4/30/2013"},{ "ID":"10370", "Category":"Traveling Works of Art", "CategoryID":"2", "theDate":"", "Title":"Nefertiti 100–Amarna 2012 ",   "city":"Berlin","country":"Germany","region":"Europe","dateStart":"12/6/2012","dateEnd":"4/4/2013","dateDisplay":"December 6, 2012–April 4, 2013","lat":"52.5234051","long":"13.4113999","dateExpire":"4/30/2013"},{ "ID":"10371", "Category":"Traveling Works of Art", "CategoryID":"2", "theDate":"", "Title":"Toulouse-Lautrec ",   "city":"Canberra","country":"Australia","region":"Australia and Oceania","dateStart":"12/14/2012","dateEnd":"4/2/2013","dateDisplay":"December 14, 2012–April 2, 2013","lat":"-35.34993","long":"149.041595","dateExpire":"4/30/2013"},{ "ID":"10372", "Category":"Traveling Works of Art", "CategoryID":"2", "theDate":"", "Title":"Paul Klee: Philosophical Vision from Nature to Art ",   "city":"Chestnut Hill, Massachusetts","country":"U.S.A.","region":"North America","dateStart":"9/1/2012","dateEnd":"12/9/2012","dateDisplay":"September 1–December 9, 2012","lat":"42.3303798","long":"-71.166187","dateExpire":"12/31/2012"},{ "ID":"10373", "Category":"Traveling Works of Art", "CategoryID":"2", "theDate":"", "Title":"Echoes of the Past: The Buddhist Cave Temples of Xiangtangshan ",   "city":"New York, New York","country":"U.S.A.","region":"North America","dateStart":"9/5/2012","dateEnd":"11/6/2012","dateDisplay":"September 5–November 6, 2012","lat":"40.779501544521715","long":"-73.96202087402344","dateExpire":"11/30/2012"},{ "ID":"10374", "Category":"Traveling Works of Art", "CategoryID":"2", "theDate":"", "Title":"Global Flows ",   "city":"Medford, Massachusetts","country":"U.S.A.","region":"North America","dateStart":"9/6/2012","dateEnd":"11/18/2012","dateDisplay":"September 6–November 18, 2012","lat":"42.4184296","long":"-71.1061639","dateExpire":"11/30/2012"},{ "ID":"10375", "Category":"Traveling Works of Art", "CategoryID":"2", "theDate":"", "Title":"Making a Presence: F. Holland in Artistic Photography ",   "city":"Brunswick, Maine","country":"U.S.A.","region":"North America","dateStart":"9/6/2012","dateEnd":"12/23/2012","dateDisplay":"September 6–December 23, 2012","lat":"43.9140162","long":"-69.9669961","dateExpire":"12/31/2012"},{ "ID":"10376", "Category":"Traveling Works of Art", "CategoryID":"2", "theDate":"", "Title":"Angels and Tomboys: Girlhood in Nineteenth-Century American Art ",   "city":"Newark, New Jersey","country":"U.S.A.","region":"North America","dateStart":"9/12/2012","dateEnd":"1/7/2013","dateDisplay":"September 21, 2012–January 7, 2013","lat":"40.735657","long":"-74.1723667","dateExpire":"1/31/2013"},{ "ID":"10378", "Category":"Traveling Works of Art", "CategoryID":"2", "theDate":"", "Title":"Circus and the City ",   "city":"New York, New York","country":"U.S.A.","region":"North America","dateStart":"9/13/2012","dateEnd":"2/3/2013","dateDisplay":"September 13, 2012–February 3, 2013","lat":"40.779501544521715","long":"-73.96202087402344","dateExpire":"2/28/2013"},{ "ID":"10379", "Category":"Traveling Works of Art", "CategoryID":"2", "theDate":"", "Title":"Giorgio Vasari and Court Culture in Late Renaissance Italy ",   "city":"Lawrence, Kansas","country":"U.S.A.","region":"North America","dateStart":"9/15/2012","dateEnd":"12/9/2012","dateDisplay":"September 15–December 9, 2012","lat":"38.9716689","long":"-95.2352501","dateExpire":"12/31/2012"},{ "ID":"10380", "Category":"Traveling Works of Art", "CategoryID":"2", "theDate":"", "Title":"American Vanguards: Graham, Davis, Gorky, de Kooning, and Their Circle, 1927–1942 ",   "city":"Andover, Massachusetts","country":"U.S.A.","region":"North America","dateStart":"9/21/2012","dateEnd":"12/30/2012","dateDisplay":"September 21–December 30, 2012","lat":"42.6583356","long":"-71.1367953","dateExpire":"12/31/2012"},{ "ID":"10381", "Category":"Traveling Works of Art", "CategoryID":"2", "theDate":"", "Title":"The Sultan's Garden: Floral Style in Ottoman Textiles ",   "city":"Washington, D.C.","country":"U.S.A.","region":"North America","dateStart":"9/21/2012","dateEnd":"3/10/2013","dateDisplay":"September 21, 2012–March 10, 2013","lat":"38.8951118","long":"-77.0363658","dateExpire":"3/31/2013"},{ "ID":"10382", "Category":"Traveling Works of Art", "CategoryID":"2", "theDate":"", "Title":"Face and Figure: The Sculpture of Gaston Lachaise ",   "city":"Greenwich, Connecticut","country":"U.S.A.","region":"North America","dateStart":"9/22/2012","dateEnd":"1/6/2013","dateDisplay":"September 22, 2012–January 6, 2013","lat":"41.0388889","long":"-73.6136111","dateExpire":"1/31/2013"},{ "ID":"10383", "Category":"Traveling Works of Art", "CategoryID":"2", "theDate":"", "Title":"The Shock of the News ",   "city":"Washington, D.C.","country":"U.S.A.","region":"North America","dateStart":"9/23/2012","dateEnd":"1/27/2013","dateDisplay":"September 23, 2012–January 27, 2013","lat":"38.8951118","long":"-77.0363658","dateExpire":"1/31/2013"},{ "ID":"10384", "Category":"Traveling Works of Art", "CategoryID":"2", "theDate":"", "Title":"Silver Winds: The Arts of Sakai Hoitsu (1761–1828) and His Circle ",   "city":"New York, New York","country":"U.S.A.","region":"North America","dateStart":"9/28/2012","dateEnd":"1/6/2013","dateDisplay":"September 28, 2012–January 6, 2013","lat":"40.779501544521715","long":"-73.96202087402344","dateExpire":"12/31/2012"},{ "ID":"10385", "Category":"Traveling Works of Art", "CategoryID":"2", "theDate":"", "Title":"An Imperial City: Prints and Drawings from Renaissance Augsburg, 1475–1540 ",   "city":"Washington, D.C.","country":"U.S.A.","region":"North America","dateStart":"9/30/2012","dateEnd":"12/31/2012","dateDisplay":"September 30–December 31, 2012","lat":"38.8951118","long":"-77.0363658","dateExpire":"12/31/2012"},{ "ID":"10386", "Category":"Traveling Works of Art", "CategoryID":"2", "theDate":"", "Title":"A Good Light: The Artist's Studio in Cos Cob and Beyond ",   "city":"Cos Cob, Connecticut","country":"U.S.A.","region":"North America","dateStart":"10/2/2012","dateEnd":"1/6/2013","dateDisplay":"October 2, 2012–January 6, 2013","lat":"41.0340436","long":"-73.5996472","dateExpire":"1/31/2013"},{ "ID":"10387", "Category":"Traveling Works of Art", "CategoryID":"2", "theDate":"", "Title":"Manet: From Portrait to Tableau ",   "city":"Toledo, Ohio","country":"U.S.A.","region":"North America","dateStart":"10/4/2012","dateEnd":"1/1/2013","dateDisplay":"October 4, 2012–January 1, 2013","lat":"41.6639383","long":"-83.555212","dateExpire":"1/31/2013"},{ "ID":"10388", "Category":"Traveling Works of Art", "CategoryID":"2", "theDate":"", "Title":"Picasso Black and White ",   "city":"New York, New York","country":"U.S.A.","region":"North America","dateStart":"10/5/2012","dateEnd":"1/23/2013","dateDisplay":"October 5, 2012–January 23, 2013","lat":"40.779501544521715","long":"-73.96202087402344","dateExpire":"1/31/2013"},{ "ID":"10389", "Category":"Traveling Works of Art", "CategoryID":"2", "theDate":"", "Title":"WWI & NYC ",   "city":"New York, New York","country":"U.S.A.","region":"North America","dateStart":"10/5/2012","dateEnd":"5/27/2013","dateDisplay":"October 5, 2012–May 27, 2013","lat":"40.779501544521715","long":"-73.96202087402344","dateExpire":"5/31/2013"},{ "ID":"10390", "Category":"Traveling Works of Art", "CategoryID":"2", "theDate":"", "Title":"Impressions of Interiors: Gilded Age Paintings by Walter Gay ",   "city":"Pittsburgh, Pennsylvania","country":"U.S.A.","region":"North America","dateStart":"10/5/2012","dateEnd":"1/6/2013","dateDisplay":"October 15, 2012–January 6, 2013","lat":"40.4406248","long":"-79.9958864","dateExpire":"1/31/2013"},{ "ID":"10391", "Category":"Traveling Works of Art", "CategoryID":"2", "theDate":"", "Title":"Louis C. Tiffany and the Art of Devotion ",   "city":"New York, New York","country":"U.S.A.","region":"North America","dateStart":"10/12/2012","dateEnd":"1/20/2013","dateDisplay":"October 12, 2012–January 20, 2013","lat":"40.779501544521715","long":"-73.96202087402344","dateExpire":"1/31/2013"},{ "ID":"10392", "Category":"Traveling Works of Art", "CategoryID":"2", "theDate":"", "Title":"Inventing the Modern World: Decorative Arts at the World's Fairs ",   "city":"Pittsburgh, Pennsylvania","country":"U.S.A.","region":"North America","dateStart":"10/13/2012","dateEnd":"2/24/2013","dateDisplay":"October 13, 2012–February 24, 2013","lat":"40.4406248","long":"-79.9958864","dateExpire":"2/28/2013"},{ "ID":"10393", "Category":"Traveling Works of Art", "CategoryID":"2", "theDate":"", "Title":"Revealing the African Presence in Renaissance Europe ",   "city":"Baltimore, Maryland","country":"U.S.A.","region":"North America","dateStart":"10/14/2012","dateEnd":"1/20/2013","dateDisplay":"October 14, 2012–January 20, 2013","lat":"39.2903848","long":"-76.6121893","dateExpire":"1/31/2013"},{ "ID":"10394", "Category":"Traveling Works of Art", "CategoryID":"2", "theDate":"", "Title":"The World of DD and Leslie Tillett ",   "city":"New York, New York","country":"U.S.A.","region":"North America","dateStart":"10/16/2012","dateEnd":"1/6/2013","dateDisplay":"October 6, 2012–January 6, 2013","lat":"40.779501544521715","long":"-73.96202087402344","dateExpire":"1/31/2013"},{ "ID":"10395", "Category":"Traveling Works of Art", "CategoryID":"2", "theDate":"", "Title":"Caro: Close Up ",   "city":"New Haven, Connecticut","country":"U.S.A.","region":"North America","dateStart":"10/18/2012","dateEnd":"12/31/2012","dateDisplay":"October 18–December 31, 2013","lat":"41.3081527","long":"-72.9281577","dateExpire":"12/31/2012"},{ "ID":"10396", "Category":"Traveling Works of Art", "CategoryID":"2", "theDate":"", "Title":"The Weir Family, 1820–1920: Expanding the Traditions of American Art ",   "city":"Charlotte, North Carolina","country":"U.S.A.","region":"North America","dateStart":"10/20/2012","dateEnd":"1/20/2013","dateDisplay":"October 20, 2012–January 20, 2013","lat":"35.2270869","long":"-80.8431267","dateExpire":"1/31/2013"},{ "ID":"10397", "Category":"Traveling Works of Art", "CategoryID":"2", "theDate":"", "Title":"Becoming Van Gogh: His Years in Paris, 1886–1888 ",   "city":"Denver, Colorado","country":"U.S.A.","region":"North America","dateStart":"10/20/2012","dateEnd":"1/20/2013","dateDisplay":"October 20, 2012–January 20, 2013","lat":"39.737567","long":"-104.9847179","dateExpire":"1/31/2013"},{ "ID":"10398", "Category":"Traveling Works of Art", "CategoryID":"2", "theDate":"", "Title":"Return to the Ashcan ",   "city":"Fort Lauderdale, Florida","country":"U.S.A.","region":"North America","dateStart":"10/20/2012","dateEnd":"2/24/2013","dateDisplay":"October 20, 2012–February 24, 2013","lat":"26.1223084","long":"-80.1433786","dateExpire":"2/28/2013"},{ "ID":"10399", "Category":"Traveling Works of Art", "CategoryID":"2", "theDate":"", "Title":"Federico Barocci ",   "city":"Saint Louis, Missouri","country":"U.S.A.","region":"North America","dateStart":"10/21/2012","dateEnd":"1/20/2013","dateDisplay":"October 21, 2012–January 20, 2013","lat":"38.6270025","long":"-90.1994042","dateExpire":"1/31/2013"},{ "ID":"10401", "Category":"Traveling Works of Art", "CategoryID":"2", "theDate":"", "Title":"Richard Artschwager ",   "city":"New York, New York","country":"U.S.A.","region":"North America","dateStart":"10/25/2012","dateEnd":"2/3/2013","dateDisplay":"October 25, 2012–February 2, 2013","lat":"40.779501544521715","long":"-73.96202087402344","dateExpire":"2/28/2013"},{ "ID":"10402", "Category":"Traveling Works of Art", "CategoryID":"2", "theDate":"", "Title":"The Realm of the Condor: Wari, the Art of the Pre-Inca Empire ",   "city":"Cleveland, Ohio","country":"U.S.A.","region":"North America","dateStart":"10/28/2012","dateEnd":"1/6/2013","dateDisplay":"October 28, 2012–January 6, 2013","lat":"41.4994954","long":"-81.6954088","dateExpire":"2/28/2013"},{ "ID":"10403", "Category":"Traveling Works of Art", "CategoryID":"2", "theDate":"", "Title":"Beauty and Belief: Crossing Bridges with the Arts of Islamic Culture ",   "city":"Indianapolis, Indiana","country":"U.S.A.","region":"North America","dateStart":"11/2/2012","dateEnd":"1/13/2013","dateDisplay":"November 2, 2012–January 13, 2013","lat":"39.7685155","long":"-86.1580736","dateExpire":"1/31/2013"},{ "ID":"10404", "Category":"Traveling Works of Art", "CategoryID":"2", "theDate":"", "Title":"Bodies and Shadows: Caravaggio and His Legacy ",   "city":"Los Angeles, California","country":"U.S.A.","region":"North America","dateStart":"11/7/2012","dateEnd":"1/20/2013","dateDisplay":"November 7, 2012–January 20, 2013","lat":"34.0522342","long":"-118.2436849","dateExpire":"1/31/2013"},{ "ID":"10405", "Category":"Traveling Works of Art", "CategoryID":"2", "theDate":"", "Title":"War / Photography ",   "city":"Houston, Texas","country":"U.S.A.","region":"North America","dateStart":"11/11/2012","dateEnd":"1/23/2013","dateDisplay":"November 11, 2012–January 23, 2013","lat":"29.7601927","long":"-95.3693896","dateExpire":"1/31/2013"},{ "ID":"10406", "Category":"Traveling Works of Art", "CategoryID":"2", "theDate":"", "Title":"Florence at the Dawn of the Renaissance: Painting and Illumination ",   "city":"Los Angeles, California","country":"U.S.A.","region":"North America","dateStart":"11/13/2012","dateEnd":"2/10/2013","dateDisplay":"November 13, 2012–February 10, 2013","lat":"34.0522342","long":"-118.2436849","dateExpire":"2/28/2013"},{ "ID":"10407", "Category":"Traveling Works of Art", "CategoryID":"2", "theDate":"", "Title":"The Civil War and American Art ",   "city":"Washington, D.C.","country":"U.S.A.","region":"North America","dateStart":"11/16/2012","dateEnd":"4/28/2013","dateDisplay":"November 16, 2012–April 28, 2013","lat":"38.8951118","long":"-77.0363658","dateExpire":"4/30/2013"},{ "ID":"10457", "Category":"Traveling Works of Art", "CategoryID":"2", "theDate":"", "Title":"Masterpieces of Chinese Tang, Song and Yuan Paintings from American Collections ",   "city":"Shanghai","country":"China","region":"Asia","dateStart":"11/3/2012","dateEnd":"1/3/2013","dateDisplay":"November 2012–January 2013","lat":"31.230393","long":"121.473704","dateExpire":"1/31/2013"},{ "ID":"10179", "Category":"Conservation", "CategoryID":"3", "theDate":"", "Title":"Rembrandt Database ",   "city":"The Hague","country":"The Netherlands","region":"Europe","dateStart":"1/1/2009","dateEnd":"12/31/2010","dateDisplay":"2009–2010","lat":"52.0698576","long":"4.2911114","dateExpire":"7/31/2025"},{ "ID":"10180", "Category":"Conservation", "CategoryID":"3", "theDate":"", "Title":"ConservationSpace ",   "city":"London","country":"United Kingdom","region":"Europe","dateStart":"1/1/2009","dateEnd":"","dateDisplay":"2009–present","lat":"51.5001524","long":"-0.1262362","dateExpire":"7/31/2025"},{ "ID":"10180", "Category":"Conservation", "CategoryID":"3", "theDate":"", "Title":"ConservationSpace ",   "city":"Copenhagen","country":"Denmark","region":"Europe","dateStart":"1/1/2009","dateEnd":"","dateDisplay":"2009–present","lat":"55.6760968","long":"12.5683371","dateExpire":"7/31/2025"},{ "ID":"10182", "Category":"Conservation", "CategoryID":"3", "theDate":"", "Title":"Conservation assessment of museums and storerooms in Cyrene, Libya ",   "city":"Cyrene","country":"Libya","region":"Africa","dateStart":"1/1/2010","dateEnd":"2/28/2010","dateDisplay":"January–February 2010","lat":"32.8178908","long":"21.864164","dateExpire":"7/31/2025"},{ "ID":"10183", "Category":"Conservation", "CategoryID":"3", "theDate":"", "Title":"Palace Museum–World Monuments Fund Qianlong Garden Conservation ",   "city":"Beijing","country":"China","region":"Asia","dateStart":"1/1/2002","dateEnd":"12/31/2019","dateDisplay":"2002–2019","lat":"39.904214","long":"116.407413","dateExpire":"7/31/2025"},{ "ID":"10184", "Category":"Conservation", "CategoryID":"3", "theDate":"", "Title":"Conservation training in Iraq ",   "city":"Erbil","country":"Iraq","region":"Middle East","dateStart":"1/1/2010","dateEnd":"12/31/2011","dateDisplay":"2010–2011","lat":"36.1164204","long":"44.0869971","dateExpire":"7/31/2025"},{ "ID":"10185", "Category":"Conservation", "CategoryID":"3", "theDate":"", "Title":"Conservation assistance to the National Museum of Afghanistan ",   "city":"Kabul","country":"Afghanistan","region":"Asia","dateStart":"1/1/2009","dateEnd":"12/31/2010","dateDisplay":"2009–2010","lat":"34.528455","long":"69.171703","dateExpire":"7/31/2025"},{ "ID":"10186", "Category":"Conservation", "CategoryID":"3", "theDate":"", "Title":"The Van Gogh Studio Practice Research Project ",   "city":"Amsterdam","country":"The Netherlands","region":"Europe","dateStart":"1/1/2009","dateEnd":"12/31/2013","dateDisplay":"2009–2013","lat":"52.3730556","long":"4.8922222","dateExpire":"7/31/2025"},{ "ID":"10187", "Category":"Conservation", "CategoryID":"3", "theDate":"", "Title":"Workshop on Textile Documentation and Preservation ",   "city":"Cairo","country":"Egypt","region":"Africa","dateStart":"1/17/2010","dateEnd":"1/29/2010","dateDisplay":"January 17–29, 2010","lat":"30.064742","long":"31.249509","dateExpire":"7/31/2025"},{ "ID":"10188", "Category":"Conservation", "CategoryID":"3", "theDate":"", "Title":"Textile Conservation and Preservation Methodology ",   "city":"Valencia","country":"Spain","region":"Europe","dateStart":"1/1/2008","dateEnd":"12/31/2010","dateDisplay":"2008–2010","lat":"39.4702393","long":"-0.3768049","dateExpire":"7/31/2025"},{ "ID":"10189", "Category":"Conservation", "CategoryID":"3", "theDate":"", "Title":"Conservation of Bellini's <em>Portrait of Caterina Cornaro</em>, Queen of Cyprus ",   "city":"Budapest","country":"Hungary","region":"Europe","dateStart":"1/1/2011","dateEnd":"12/31/2010","dateDisplay":"2011","lat":"47.4984056","long":"19.0407578","dateExpire":"7/31/2025"},{ "ID":"10190", "Category":"Conservation", "CategoryID":"3", "theDate":"", "Title":"Technical examination of Cézanne's Card Players series ",   "city":"London","country":"United Kingdom","region":"Europe","dateStart":"2/1/2011","dateEnd":"3/31/2011","dateDisplay":"February–March 2011","lat":"51.5001524","long":"-0.1262362","dateExpire":"7/31/2025"},{ "ID":"10191", "Category":"Conservation", "CategoryID":"3", "theDate":"", "Title":"Structural conservation of Dürer's <em>Adam and Eve</em> panels ",   "city":"Madrid","country":"Spain","region":"Europe","dateStart":"1/1/2009","dateEnd":"12/31/2009","dateDisplay":"2009","lat":"40.4166909","long":"-3.7003454","dateExpire":"7/31/2025"},{ "ID":"10191", "Category":"Conservation", "CategoryID":"3", "theDate":"", "Title":"Structural conservation of Dürer's <em>Adam and Eve</em> panels ",   "city":"Budapest","country":"Hungary","region":"Europe","dateStart":"1/1/2009","dateEnd":"12/31/2009","dateDisplay":"2009","lat":"47.4984056","long":"19.0407578","dateExpire":"7/31/2025"},{ "ID":"10192", "Category":"Conservation", "CategoryID":"3", "theDate":"", "Title":"Conservation of Gossart's <em>The Mocking of Christ</em> and <em>Portrait of a Man</em> ",   "city":"Budapest","country":"Hungary","region":"Europe","dateStart":"1/1/2009","dateEnd":"12/31/2010","dateDisplay":"2009–2010","lat":"47.4984056","long":"19.0407578","dateExpire":"7/31/2025"},{ "ID":"10192", "Category":"Conservation", "CategoryID":"3", "theDate":"", "Title":"Conservation of Gossart's <em>The Mocking of Christ</em> and <em>Portrait of a Man</em> ",   "city":"Antwerp","country":"Belgium","region":"Europe","dateStart":"1/1/2009","dateEnd":"12/31/2010","dateDisplay":"2009–2010","lat":"51.21992","long":"4.39625","dateExpire":"7/31/2025"},{ "ID":"10241", "Category":"Conservation", "CategoryID":"3", "theDate":"", "Title":"Advisory Panel, Georgian National Museum, reinstallation of medieval collections ",   "city":"Tbilisi","country":"Georgia","region":"Europe","dateStart":"1/1/2010","dateEnd":"12/31/2011","dateDisplay":"2010–2011","lat":"41.709981","long":"44.792998","dateExpire":"7/31/2025"},{ "ID":"10180", "Category":"Conservation", "CategoryID":"3", "theDate":"", "Title":"ConservationSpace ",   "city":"New York, New York","country":"U.S.A.","region":"North America","dateStart":"1/1/2009","dateEnd":"","dateDisplay":"2009–present","lat":"40.779501544521715","long":"-73.96202087402344","dateExpire":"7/31/2025"},{ "ID":"10180", "Category":"Conservation", "CategoryID":"3", "theDate":"", "Title":"ConservationSpace ",   "city":"Indianapolis, Indiana","country":"U.S.A.","region":"North America","dateStart":"1/1/2009","dateEnd":"","dateDisplay":"2009–present","lat":"39.7685155","long":"-86.1580736","dateExpire":"7/31/2025"},{ "ID":"10180", "Category":"Conservation", "CategoryID":"3", "theDate":"", "Title":"ConservationSpace ",   "city":"Washington, D.C.","country":"U.S.A.","region":"North America","dateStart":"1/1/2009","dateEnd":"","dateDisplay":"2009–present","lat":"38.8951118","long":"-77.0363658","dateExpire":"7/31/2025"},{ "ID":"10180", "Category":"Conservation", "CategoryID":"3", "theDate":"", "Title":"ConservationSpace ",   "city":"New Haven, Connecticut","country":"U.S.A.","region":"North America","dateStart":"1/1/2009","dateEnd":"","dateDisplay":"2009–present","lat":"41.3081527","long":"-72.9281577","dateExpire":"7/31/2025"},{ "ID":"10182", "Category":"Conservation", "CategoryID":"3", "theDate":"", "Title":"Conservation assessment of museums and storerooms in Cyrene, Libya ",   "city":"Oberlin, Ohio","country":"U.S.A.","region":"North America","dateStart":"1/1/2010","dateEnd":"2/28/2010","dateDisplay":"January–February 2010","lat":"41.2939386","long":"-82.2173786","dateExpire":"7/31/2025"},{ "ID":"10183", "Category":"Conservation", "CategoryID":"3", "theDate":"", "Title":"Palace Museum–World Monuments Fund Qianlong Garden Conservation ",   "city":"New York, New York","country":"U.S.A.","region":"North America","dateStart":"1/1/2002","dateEnd":"12/31/2019","dateDisplay":"2002–2019","lat":"40.779501544521715","long":"-73.96202087402344","dateExpire":"7/31/2025"},{ "ID":"10184", "Category":"Conservation", "CategoryID":"3", "theDate":"", "Title":"Conservation training in Iraq ",   "city":"Washington, D.C.","country":"U.S.A.","region":"North America","dateStart":"1/1/2010","dateEnd":"12/31/2011","dateDisplay":"2010–2011","lat":"38.8951118","long":"-77.0363658","dateExpire":"7/31/2025"},{ "ID":"10184", "Category":"Conservation", "CategoryID":"3", "theDate":"", "Title":"Conservation training in Iraq ",   "city":"Baghdad","country":"Iraq","region":"Middle East","dateStart":"1/1/2010","dateEnd":"12/31/2011","dateDisplay":"2010–2011","lat":"33.3157","long":"44.3922","dateExpire":"7/31/2025"},{ "ID":"10185", "Category":"Conservation", "CategoryID":"3", "theDate":"", "Title":"Conservation assistance to the National Museum of Afghanistan ",   "city":"Washington, D.C.","country":"U.S.A.","region":"North America","dateStart":"1/1/2009","dateEnd":"12/31/2010","dateDisplay":"2009–2010","lat":"38.8951118","long":"-77.0363658","dateExpire":"7/31/2025"},{ "ID":"10186", "Category":"Conservation", "CategoryID":"3", "theDate":"", "Title":"The Van Gogh Studio Practice Research Project ",   "city":"London","country":"United Kingdom","region":"Europe","dateStart":"1/1/2009","dateEnd":"12/31/2013","dateDisplay":"2009–2013","lat":"51.5001524","long":"-0.1262362","dateExpire":"7/31/2025"},{ "ID":"10186", "Category":"Conservation", "CategoryID":"3", "theDate":"", "Title":"The Van Gogh Studio Practice Research Project ",   "city":"Cologne","country":"Germany","region":"Europe","dateStart":"1/1/2009","dateEnd":"12/31/2013","dateDisplay":"2009–2013","lat":"50.9406645","long":"6.9599115","dateExpire":"7/31/2025"},{ "ID":"10186", "Category":"Conservation", "CategoryID":"3", "theDate":"", "Title":"The Van Gogh Studio Practice Research Project ",   "city":"New York, New York","country":"U.S.A.","region":"North America","dateStart":"1/1/2009","dateEnd":"12/31/2013","dateDisplay":"2009–2013","lat":"40.779501544521715","long":"-73.96202087402344","dateExpire":"7/31/2025"},{ "ID":"10186", "Category":"Conservation", "CategoryID":"3", "theDate":"", "Title":"The Van Gogh Studio Practice Research Project ",   "city":"Nottingham","country":"United Kingdom","region":"Europe","dateStart":"1/1/2009","dateEnd":"12/31/2013","dateDisplay":"2009–2013","lat":"52.95477","long":"-1.158086","dateExpire":"7/31/2025"},{ "ID":"10186", "Category":"Conservation", "CategoryID":"3", "theDate":"", "Title":"The Van Gogh Studio Practice Research Project ",   "city":"Lisbon","country":"Portugal","region":"Europe","dateStart":"1/1/2009","dateEnd":"12/31/2013","dateDisplay":"2009–2013","lat":"38.706932","long":"-9.1356321","dateExpire":"7/31/2025"},{ "ID":"10191", "Category":"Conservation", "CategoryID":"3", "theDate":"", "Title":"Structural conservation of Dürer's <em>Adam and Eve</em> panels ",   "city":"Los Angeles, California","country":"U.S.A.","region":"North America","dateStart":"1/1/2009","dateEnd":"12/31/2009","dateDisplay":"2009","lat":"34.0522342","long":"-118.2436849","dateExpire":"7/31/2025"},{ "ID":"10145", "Category":"Excavations", "CategoryID":"4", "theDate":"", "Title":"Pyramid Complex of Senwosret III, Dahshur ",   "city":"Dahshur","country":"Egypt","region":"Africa","dateStart":"1/1/1990","dateEnd":"","dateDisplay":"1990, 1992–present","lat":"29.7516","long":"31.2361","dateExpire":"7/31/2025"},{ "ID":"10146", "Category":"Excavations", "CategoryID":"4", "theDate":"", "Title":"Lisht, Kharga Oasis, Thebes (The Egyptian Expedition) ",   "city":"Lisht","country":"Egypt","region":"Africa","dateStart":"1/1/1906","dateEnd":"12/31/1936","dateDisplay":"1906–1936","lat":"29.5691","long":"31.2312","dateExpire":"7/31/2025"},{ "ID":"10146", "Category":"Excavations", "CategoryID":"4", "theDate":"", "Title":"Lisht, Kharga Oasis, Thebes (The Egyptian Expedition) ",   "city":"Kharga Oasis","country":"Egypt","region":"Africa","dateStart":"1/1/1906","dateEnd":"12/31/1936","dateDisplay":"1906–1936","lat":"25.4489","long":"30.5401","dateExpire":"7/31/2025"},{ "ID":"10146", "Category":"Excavations", "CategoryID":"4", "theDate":"", "Title":"Lisht, Kharga Oasis, Thebes (The Egyptian Expedition) ",   "city":"Thebes","country":"Egypt","region":"Africa","dateStart":"1/1/1906","dateEnd":"12/31/1936","dateDisplay":"1906–1936","lat":"25.6872431","long":"32.6396357","dateExpire":"7/31/2025"},{ "ID":"10147", "Category":"Excavations", "CategoryID":"4", "theDate":"", "Title":"Pyramid Complex of Amenemhat I, Lisht ",   "city":"Lisht","country":"Egypt","region":"Africa","dateStart":"1/1/1906","dateEnd":"12/31/1991","dateDisplay":"1906–1922, 1991","lat":"29.5691","long":"31.2312","dateExpire":"7/31/2025"},{ "ID":"10148", "Category":"Excavations", "CategoryID":"4", "theDate":"", "Title":"Pyramid Complex of Senwosret I, Lisht ",   "city":"Lisht","country":"Egypt","region":"Africa","dateStart":"1/1/1907","dateEnd":"12/31/1989","dateDisplay":"1907–1934, 1984–1989","lat":"29.5691","long":"31.2312","dateExpire":"7/31/2025"},{ "ID":"10149", "Category":"Excavations", "CategoryID":"4", "theDate":"", "Title":"Temple of Hibis, Kharga Oasis ",   "city":"Kharga Oasis","country":"Egypt","region":"Africa","dateStart":"1/1/1909","dateEnd":"12/31/1939","dateDisplay":"1909–1939","lat":"25.4489","long":"30.5401","dateExpire":"7/31/2025"},{ "ID":"10150", "Category":"Excavations", "CategoryID":"4", "theDate":"", "Title":"Cemetery of El-Bagawat and Ain et-Turba, Kharga Oasis ",   "city":"Kharga Oasis","country":"Egypt","region":"Africa","dateStart":"1/1/1908","dateEnd":"12/31/1908","dateDisplay":"1908","lat":"25.4489","long":"30.5401","dateExpire":"7/31/2025"},{ "ID":"10151", "Category":"Excavations", "CategoryID":"4", "theDate":"", "Title":"Camel Caravan from Kharga Oasis to Dakhla Oasis ",   "city":"Kharga Oasis","country":"Egypt","region":"Africa","dateStart":"1/1/1908","dateEnd":"12/31/1908","dateDisplay":"1908","lat":"25.4489","long":"30.5401","dateExpire":"7/31/2025"},{ "ID":"10152", "Category":"Excavations", "CategoryID":"4", "theDate":"", "Title":"Lower Asasif, Thebes ",   "city":"Thebes","country":"Egypt","region":"Africa","dateStart":"1/1/1915","dateEnd":"12/31/1935","dateDisplay":"1915–1916, 1935","lat":"25.6872431","long":"32.6396357","dateExpire":"7/31/2025"},{ "ID":"10153", "Category":"Excavations", "CategoryID":"4", "theDate":"", "Title":"Malqata, Thebes ",   "city":"Thebes","country":"Egypt","region":"Africa","dateStart":"1/1/1910","dateEnd":"","dateDisplay":"1910–1920, 2008–present","lat":"25.6872431","long":"32.6396357","dateExpire":"7/31/2025"},{ "ID":"10154", "Category":"Excavations", "CategoryID":"4", "theDate":"", "Title":"Monastery of Epiphanius, Thebes ",   "city":"Thebes","country":"Egypt","region":"Africa","dateStart":"1/1/1911","dateEnd":"1/1/1914","dateDisplay":"1911–1914","lat":"25.6872431","long":"32.6396357","dateExpire":"7/31/2025"},{ "ID":"10155", "Category":"Excavations", "CategoryID":"4", "theDate":"", "Title":"Temple of Hatshepsut, Thebes ",   "city":"Thebes","country":"Egypt","region":"Africa","dateStart":"1/1/1923","dateEnd":"12/31/1931","dateDisplay":"1923–1931","lat":"25.6872431","long":"32.6396357","dateExpire":"7/31/2025"},{ "ID":"10156", "Category":"Excavations", "CategoryID":"4", "theDate":"", "Title":"Temple of Mentuhotep, Thebes ",   "city":"Thebes","country":"Egypt","region":"Africa","dateStart":"1/1/1920","dateEnd":"12/31/1931","dateDisplay":"1920–1931","lat":"25.6872431","long":"32.6396357","dateExpire":"7/31/2025"},{ "ID":"10157", "Category":"Excavations", "CategoryID":"4", "theDate":"", "Title":"Tombs of Meketre and Wah, Thebes  ",   "city":"Thebes","country":"Egypt","region":"Africa","dateStart":"1/1/1920","dateEnd":"12/31/1920","dateDisplay":"1920","lat":"25.6872431","long":"32.6396357","dateExpire":"7/31/2025"},{ "ID":"10158", "Category":"Excavations", "CategoryID":"4", "theDate":"", "Title":"Tombs of Dynasty 21, Thebes ",   "city":"Thebes","country":"Egypt","region":"Africa","dateStart":"1/1/1923","dateEnd":"12/31/1924","dateDisplay":"1923–1924","lat":"25.6872431","long":"32.6396357","dateExpire":"7/31/2025"},{ "ID":"10159", "Category":"Excavations", "CategoryID":"4", "theDate":"", "Title":"Tomb of Merytamun and Nany, Thebes ",   "city":"Thebes","country":"Egypt","region":"Africa","dateStart":"1/1/1929","dateEnd":"12/31/1930","dateDisplay":"1929, 1930","lat":"25.6872431","long":"32.6396357","dateExpire":"7/31/2025"},{ "ID":"10160", "Category":"Excavations", "CategoryID":"4", "theDate":"", "Title":"Tombs of Senenmut and His Family, Thebes ",   "city":"Thebes","country":"Egypt","region":"Africa","dateStart":"1/1/1926","dateEnd":"12/31/1936","dateDisplay":"1926–1927, 1930–1931, 1936","lat":"25.6872431","long":"32.6396357","dateExpire":"7/31/2025"},{ "ID":"10161", "Category":"Excavations", "CategoryID":"4", "theDate":"", "Title":"Thebes: The Graphic Section: Facsimiles of Egyptian Wall Paintings ",   "city":"Thebes","country":"Egypt","region":"Africa","dateStart":"1/1/1907","dateEnd":"12/31/1936","dateDisplay":"1907–1936","lat":"25.6872431","long":"32.6396357","dateExpire":"7/31/2025"},{ "ID":"10162", "Category":"Excavations", "CategoryID":"4", "theDate":"", "Title":"Thebes: The Graphic Section: The Photographs of Harry Burton ",   "city":"Thebes","country":"Egypt","region":"Africa","dateStart":"1/1/1914","dateEnd":"12/31/1936","dateDisplay":"1914–1936","lat":"25.6872431","long":"32.6396357","dateExpire":"7/31/2025"},{ "ID":"10163", "Category":"Excavations", "CategoryID":"4", "theDate":"", "Title":"Thebes: The Graphic Section: Harry Burton's Photographs of Tutankhamun's Tomb ",   "city":"Thebes","country":"Egypt","region":"Africa","dateStart":"1/1/1922","dateEnd":"12/31/1932","dateDisplay":"1922–1932","lat":"25.6872431","long":"32.6396357","dateExpire":"7/31/2025"},{ "ID":"10164", "Category":"Excavations", "CategoryID":"4", "theDate":"", "Title":"Al-Hiba (ancient Lagash) ",   "city":"Lagash","country":"Iraq","region":"Middle East","dateStart":"1/1/1968","dateEnd":"12/31/1990","dateDisplay":"1968–1990","lat":"31.5627778","long":"46.1758333","dateExpire":"7/31/2025"},{ "ID":"10165", "Category":"Excavations", "CategoryID":"4", "theDate":"", "Title":"Ctesiphon ",   "city":"Ctesiphon","country":"Iraq","region":"Middle East","dateStart":"1/1/1931","dateEnd":"12/31/1932","dateDisplay":"1931–1932","lat":"33.09361","long":"44.58056","dateExpire":"7/31/2025"},{ "ID":"10166", "Category":"Excavations", "CategoryID":"4", "theDate":"", "Title":"Hasanlu ",   "city":"Hasanlu","country":"Iran","region":"Middle East","dateStart":"1/1/1959","dateEnd":"12/31/1977","dateDisplay":"1959–1977","lat":"36.5363781","long":"46.6695867","dateExpire":"7/31/2025"},{ "ID":"10167", "Category":"Excavations", "CategoryID":"4", "theDate":"", "Title":"Jujah ",   "city":"Jujah","country":"Yemen","region":"Middle East","dateStart":"1/1/1994","dateEnd":"12/31/1995","dateDisplay":"1994, 1995","lat":"15.941039","long":"48.780092","dateExpire":"7/31/2025"},{ "ID":"10168", "Category":"Excavations", "CategoryID":"4", "theDate":"", "Title":"Merv ",   "city":"Merv","country":"Turkmenistan","region":"Asia","dateStart":"1/1/1998","dateEnd":"12/31/2001","dateDisplay":"1998–2001","lat":"36.9481623","long":"62.4504154","dateExpire":"7/31/2025"},{ "ID":"10169", "Category":"Excavations", "CategoryID":"4", "theDate":"", "Title":"Nimrud (ancient Kalhu) ",   "city":"Kalhu","country":"Iraq","region":"Middle East","dateStart":"1/1/1951","dateEnd":"12/31/1963","dateDisplay":"1951–1963","lat":"36.43012234551579","long":"43.187255859375","dateExpire":"7/31/2025"},{ "ID":"10170", "Category":"Excavations", "CategoryID":"4", "theDate":"", "Title":"Nippur ",   "city":"Nippur","country":"Iraq","region":"Middle East","dateStart":"1/1/1957","dateEnd":"12/31/1961","dateDisplay":"1957–1961","lat":"32.23138966273763","long":"44.8681640625","dateExpire":"7/31/2025"},{ "ID":"10171", "Category":"Excavations", "CategoryID":"4", "theDate":"", "Title":"Tell Brak ",   "city":"Tell Brak","country":"Syria","region":"Middle East","dateStart":"1/1/1983","dateEnd":"12/31/2000","dateDisplay":"1983–2000","lat":"36.6824572","long":"41.0545241","dateExpire":"7/31/2025"},{ "ID":"10172", "Category":"Excavations", "CategoryID":"4", "theDate":"", "Title":"Tell ed-Duweir (ancient Lachish) ",   "city":"Lachish","country":"Israel","region":"Middle East","dateStart":"1/1/1932","dateEnd":"12/31/1933","dateDisplay":"1932–1933","lat":"31.8015083","long":"34.6721222","dateExpire":"7/31/2025"},{ "ID":"10173", "Category":"Excavations", "CategoryID":"4", "theDate":"", "Title":"Tell Mozan (ancient Urkesh) ",   "city":"Urkesh","country":"Syria","region":"Middle East","dateStart":"1/1/2006","dateEnd":"","dateDisplay":"2006–2010","lat":"37.10338413422305","long":"40.946044921875","dateExpire":"7/31/2025"},{ "ID":"10174", "Category":"Excavations", "CategoryID":"4", "theDate":"", "Title":"Umm el-Marra ",   "city":"Umm el-Marra","country":"Syria","region":"Middle East","dateStart":"1/1/2006","dateEnd":"","dateDisplay":"2006–2010","lat":"36.07732","long":"37.38678","dateExpire":"7/31/2025"},{ "ID":"10175", "Category":"Excavations", "CategoryID":"4", "theDate":"", "Title":"Nishapur ",   "city":"Nishapur","country":"Iran","region":"Middle East","dateStart":"1/1/1935","dateEnd":"12/31/1948","dateDisplay":"1935–1940, 1947–1948","lat":"36.2","long":"58.8","dateExpire":"7/31/2025"},{ "ID":"10176", "Category":"Excavations", "CategoryID":"4", "theDate":"", "Title":"Amorium ",   "city":"Amorium","country":"Turkey","region":"Middle East","dateStart":"1/1/1987","dateEnd":"","dateDisplay":"1987–present","lat":"35.3032467","long":"33.1042183","dateExpire":"7/31/2025"},{ "ID":"10177", "Category":"Excavations", "CategoryID":"4", "theDate":"", "Title":"Palaikastro, Crete ",   "city":"Palaikastro, Crete","country":"Greece","region":"Europe","dateStart":"1/1/1902","dateEnd":"","dateDisplay":"1902–1906, 1962–1963, 1972, 1978, 1983–present","lat":"35.19794","long":"26.25501","dateExpire":"7/31/2025"},{ "ID":"10045", "Category":"Fellowships", "CategoryID":"5", "theDate":"", "Title":"Theodore Rousseau Fellowship ",   "city":"Brussels","country":"Belgium","region":"Europe","dateStart":"9/1/2011","dateEnd":"8/31/2012","dateDisplay":"2011–2012","lat":"50.8503396","long":"4.3517103","dateExpire":"12/31/2012"},{ "ID":"10045", "Category":"Fellowships", "CategoryID":"5", "theDate":"", "Title":"Theodore Rousseau Fellowship ",   "city":"Madrid","country":"Spain","region":"Europe","dateStart":"9/1/2011","dateEnd":"8/31/2012","dateDisplay":"2011–2012","lat":"40.4166909","long":"-3.7003454","dateExpire":"12/31/2012"},{ "ID":"10045", "Category":"Fellowships", "CategoryID":"5", "theDate":"", "Title":"Theodore Rousseau Fellowship ",   "city":"Amsterdam","country":"The Netherlands","region":"Europe","dateStart":"9/1/2011","dateEnd":"8/31/2012","dateDisplay":"2011–2012","lat":"52.3730556","long":"4.8922222","dateExpire":"12/31/2012"},{ "ID":"10046", "Category":"Fellowships", "CategoryID":"5", "theDate":"", "Title":"Jane and Morgan Whitney Fellowship ",   "city":"London","country":"United Kingdom","region":"Europe","dateStart":"9/1/2011","dateEnd":"8/31/2012","dateDisplay":"2011–2012","lat":"51.5001524","long":"-0.1262362","dateExpire":"12/31/2012"},{ "ID":"10046", "Category":"Fellowships", "CategoryID":"5", "theDate":"", "Title":"Jane and Morgan Whitney Fellowship ",   "city":"Paris","country":"France","region":"Europe","dateStart":"9/1/2011","dateEnd":"8/31/2012","dateDisplay":"2011–2012","lat":"48.856614","long":"2.3522219","dateExpire":"12/31/2012"},{ "ID":"10045", "Category":"Fellowships", "CategoryID":"5", "theDate":"", "Title":"Theodore Rousseau Fellowship ",   "city":"Copenhagen","country":"Denmark","region":"Europe","dateStart":"9/1/2011","dateEnd":"8/31/2012","dateDisplay":"2011–2012","lat":"55.6760968","long":"12.5683371","dateExpire":"12/31/2012"},{ "ID":"10045", "Category":"Fellowships", "CategoryID":"5", "theDate":"", "Title":"Theodore Rousseau Fellowship ",   "city":"Rome","country":"Italy","region":"Europe","dateStart":"9/1/2011","dateEnd":"8/31/2012","dateDisplay":"2011–2012","lat":"41.8905198","long":"12.4942486","dateExpire":"12/31/2012"},{ "ID":"10045", "Category":"Fellowships", "CategoryID":"5", "theDate":"", "Title":"Theodore Rousseau Fellowship ",   "city":"Berlin","country":"Germany","region":"Europe","dateStart":"9/1/2011","dateEnd":"8/31/2012","dateDisplay":"2011–2012","lat":"52.5234051","long":"13.4113999","dateExpire":"12/31/2012"},{ "ID":"10045", "Category":"Fellowships", "CategoryID":"5", "theDate":"", "Title":"Theodore Rousseau Fellowship ",   "city":"London","country":"United Kingdom","region":"Europe","dateStart":"9/1/2011","dateEnd":"8/31/2012","dateDisplay":"2011–2012","lat":"51.5001524","long":"-0.1262362","dateExpire":"12/31/2012"},{ "ID":"10045", "Category":"Fellowships", "CategoryID":"5", "theDate":"", "Title":"Theodore Rousseau Fellowship ",   "city":"Paris","country":"France","region":"Europe","dateStart":"9/1/2011","dateEnd":"8/31/2012","dateDisplay":"2011–2012","lat":"48.856614","long":"2.3522219","dateExpire":"12/31/2012"},{ "ID":"10046", "Category":"Fellowships", "CategoryID":"5", "theDate":"", "Title":"Jane and Morgan Whitney Fellowship ",   "city":"Berlin","country":"Germany","region":"Europe","dateStart":"9/1/2011","dateEnd":"8/31/2012","dateDisplay":"2011–2012","lat":"52.5234051","long":"13.4113999","dateExpire":"12/31/2012"},{ "ID":"10078", "Category":"Fellowships", "CategoryID":"5", "theDate":"", "Title":"Douglass Foundation Fellowship in American Art ",   "city":"Paris","country":"France","region":"Europe","dateStart":"9/1/2011","dateEnd":"8/31/2013","dateDisplay":"2011–2013","lat":"48.856614","long":"2.3522219","dateExpire":"12/31/2013"},{ "ID":"10079", "Category":"Fellowships", "CategoryID":"5", "theDate":"", "Title":"Andrew W. Mellon Postdoctoral Curatorial Fellowship ",   "city":"Rome","country":"Italy","region":"Europe","dateStart":"9/1/2011","dateEnd":"8/31/2012","dateDisplay":"2011–2012","lat":"41.8905198","long":"12.4942486","dateExpire":"12/31/2012"},{ "ID":"10080", "Category":"Fellowships", "CategoryID":"5", "theDate":"", "Title":"Andrew W. Mellon Fellowship ",   "city":"Seoul","country":"South Korea","region":"Asia","dateStart":"9/1/2011","dateEnd":"8/31/2012","dateDisplay":"2011–2012","lat":"37.566535","long":"126.9779692","dateExpire":"12/31/2012"},{ "ID":"10081", "Category":"Fellowships", "CategoryID":"5", "theDate":"", "Title":"Andrew W. Mellon Fellowship ",   "city":"Rome","country":"Italy","region":"Europe","dateStart":"9/1/2011","dateEnd":"8/31/2012","dateDisplay":"2011–2012","lat":"41.8905198","long":"12.4942486","dateExpire":"12/31/2012"},{ "ID":"10081", "Category":"Fellowships", "CategoryID":"5", "theDate":"", "Title":"Andrew W. Mellon Fellowship ",   "city":"London","country":"United Kingdom","region":"Europe","dateStart":"9/1/2011","dateEnd":"8/31/2012","dateDisplay":"2011–2012","lat":"51.5001524","long":"-0.1262362","dateExpire":"12/31/2012"},{ "ID":"10082", "Category":"Fellowships", "CategoryID":"5", "theDate":"", "Title":"Theodore Rousseau Fellowship ",   "city":"Paris","country":"France","region":"Europe","dateStart":"9/1/2011","dateEnd":"8/31/2012","dateDisplay":"2011–2012","lat":"48.856614","long":"2.3522219","dateExpire":"12/31/2012"},{ "ID":"10082", "Category":"Fellowships", "CategoryID":"5", "theDate":"", "Title":"Theodore Rousseau Fellowship ",   "city":"Bern","country":"Switzerland","region":"Europe","dateStart":"9/1/2011","dateEnd":"8/31/2012","dateDisplay":"2011–2012","lat":"46.9479222","long":"7.4446085","dateExpire":"12/31/2012"},{ "ID":"10082", "Category":"Fellowships", "CategoryID":"5", "theDate":"", "Title":"Theodore Rousseau Fellowship ",   "city":"London","country":"United Kingdom","region":"Europe","dateStart":"9/1/2011","dateEnd":"8/31/2012","dateDisplay":"2011–2012","lat":"51.5001524","long":"-0.1262362","dateExpire":"12/31/2012"},{ "ID":"10083", "Category":"Fellowships", "CategoryID":"5", "theDate":"", "Title":"Andrew W. Mellon Fellowship ",   "city":"London","country":"United Kingdom","region":"Europe","dateStart":"9/1/2011","dateEnd":"8/31/2012","dateDisplay":"2011–2012","lat":"51.5001524","long":"-0.1262362","dateExpire":"12/31/2012"},{ "ID":"10084", "Category":"Fellowships", "CategoryID":"5", "theDate":"", "Title":"Pat O'Connell Memorial Fellowship ",   "city":"Belgrade","country":"Serbia","region":"Europe","dateStart":"9/1/2011","dateEnd":"8/31/2012","dateDisplay":"2011–2012","lat":"44.802416","long":"20.465601","dateExpire":"12/31/2012"},{ "ID":"10085", "Category":"Fellowships", "CategoryID":"5", "theDate":"", "Title":"Andrew W. Mellon Fellowship ",   "city":"Cairo","country":"Egypt","region":"Africa","dateStart":"9/1/2011","dateEnd":"8/31/2012","dateDisplay":"2011–2012","lat":"30.064742","long":"31.249509","dateExpire":"12/31/2012"},{ "ID":"10086", "Category":"Fellowships", "CategoryID":"5", "theDate":"", "Title":"Sylvan C. Coleman and Pamela Coleman Memorial Fund Fellowship ",   "city":"Cairo","country":"Egypt","region":"Africa","dateStart":"9/1/2011","dateEnd":"8/31/2012","dateDisplay":"2011–2012","lat":"30.064742","long":"31.249509","dateExpire":"12/31/2012"},{ "ID":"10087", "Category":"Fellowships", "CategoryID":"5", "theDate":"", "Title":"Andrew W. Mellon Fellowship ",   "city":"Rome","country":"Italy","region":"Europe","dateStart":"9/1/2011","dateEnd":"8/31/2012","dateDisplay":"2011–2012","lat":"41.8905198","long":"12.4942486","dateExpire":"12/31/2012"},{ "ID":"10088", "Category":"Fellowships", "CategoryID":"5", "theDate":"", "Title":"Theodore Rousseau Fellowship ",   "city":"Dublin","country":"Ireland","region":"Europe","dateStart":"9/1/2011","dateEnd":"8/31/2012","dateDisplay":"2011–2012","lat":"53.344104","long":"-6.2674937","dateExpire":"12/31/2012"},{ "ID":"10088", "Category":"Fellowships", "CategoryID":"5", "theDate":"", "Title":"Theodore Rousseau Fellowship ",   "city":"Moscow","country":"Russia","region":"Asia","dateStart":"9/1/2011","dateEnd":"8/31/2012","dateDisplay":"2011–2012","lat":"55.755786","long":"37.617633","dateExpire":"12/31/2012"},{ "ID":"10088", "Category":"Fellowships", "CategoryID":"5", "theDate":"", "Title":"Theodore Rousseau Fellowship ",   "city":"Rome","country":"Italy","region":"Europe","dateStart":"9/1/2011","dateEnd":"8/31/2012","dateDisplay":"2011–2012","lat":"41.8905198","long":"12.4942486","dateExpire":"12/31/2012"},{ "ID":"10088", "Category":"Fellowships", "CategoryID":"5", "theDate":"", "Title":"Theodore Rousseau Fellowship ",   "city":"Paris","country":"France","region":"Europe","dateStart":"9/1/2011","dateEnd":"8/31/2012","dateDisplay":"2011–2012","lat":"48.856614","long":"2.3522219","dateExpire":"12/31/2012"},{ "ID":"10088", "Category":"Fellowships", "CategoryID":"5", "theDate":"", "Title":"Theodore Rousseau Fellowship ",   "city":"Vienna","country":"Austria","region":"Europe","dateStart":"9/1/2011","dateEnd":"8/31/2012","dateDisplay":"2011–2012","lat":"48.2081743","long":"16.3738189","dateExpire":"12/31/2012"},{ "ID":"10088", "Category":"Fellowships", "CategoryID":"5", "theDate":"", "Title":"Theodore Rousseau Fellowship ",   "city":"Berlin","country":"Germany","region":"Europe","dateStart":"9/1/2011","dateEnd":"8/31/2012","dateDisplay":"2011–2012","lat":"52.5234051","long":"13.4113999","dateExpire":"12/31/2012"},{ "ID":"10089", "Category":"Fellowships", "CategoryID":"5", "theDate":"", "Title":"Theodore Rousseau Fellowship ",   "city":"Paris","country":"France","region":"Europe","dateStart":"9/1/2011","dateEnd":"8/31/2012","dateDisplay":"2011–2012","lat":"48.856614","long":"2.3522219","dateExpire":"12/31/2012"},{ "ID":"10089", "Category":"Fellowships", "CategoryID":"5", "theDate":"", "Title":"Theodore Rousseau Fellowship ",   "city":"Moscow","country":"Russia","region":"Asia","dateStart":"9/1/2011","dateEnd":"8/31/2012","dateDisplay":"2011–2012","lat":"55.755786","long":"37.617633","dateExpire":"12/31/2012"},{ "ID":"10089", "Category":"Fellowships", "CategoryID":"5", "theDate":"", "Title":"Theodore Rousseau Fellowship ",   "city":"Budapest","country":"Hungary","region":"Europe","dateStart":"9/1/2011","dateEnd":"8/31/2012","dateDisplay":"2011–2012","lat":"47.4984056","long":"19.0407578","dateExpire":"12/31/2012"},{ "ID":"10090", "Category":"Fellowships", "CategoryID":"5", "theDate":"", "Title":"Andrew W. Mellon Fellowship ",   "city":"London","country":"United Kingdom","region":"Europe","dateStart":"9/1/2011","dateEnd":"8/31/2012","dateDisplay":"2011–2012","lat":"51.5001524","long":"-0.1262362","dateExpire":"12/31/2012"},{ "ID":"10090", "Category":"Fellowships", "CategoryID":"5", "theDate":"", "Title":"Andrew W. Mellon Fellowship ",   "city":"New Delhi","country":"India","region":"Asia","dateStart":"9/1/2011","dateEnd":"8/31/2012","dateDisplay":"2011–2012","lat":"28.635308","long":"77.22496","dateExpire":"12/31/2012"},{ "ID":"10091", "Category":"Fellowships", "CategoryID":"5", "theDate":"", "Title":"Sherman Fairchild Foundation Fellowship ",   "city":"Rome","country":"Italy","region":"Europe","dateStart":"9/1/2011","dateEnd":"8/31/2012","dateDisplay":"2011–2012","lat":"41.8905198","long":"12.4942486","dateExpire":"12/31/2012"},{ "ID":"10092", "Category":"Fellowships", "CategoryID":"5", "theDate":"", "Title":"Andrew W. Mellon Fellowship ",   "city":"Beijing","country":"China","region":"Asia","dateStart":"9/1/2011","dateEnd":"8/31/2012","dateDisplay":"2011–2012","lat":"39.904214","long":"116.407413","dateExpire":"12/31/2012"},{ "ID":"10093", "Category":"Fellowships", "CategoryID":"5", "theDate":"", "Title":"Jane and Morgan Whitney Fellowship ",   "city":"Moscow","country":"Russia","region":"Asia","dateStart":"9/1/2011","dateEnd":"8/31/2012","dateDisplay":"2011–2012","lat":"55.755786","long":"37.617633","dateExpire":"12/31/2012"},{ "ID":"10094", "Category":"Fellowships", "CategoryID":"5", "theDate":"", "Title":"J. Clawson Mills Fellowship ",   "city":"Beijing","country":"China","region":"Asia","dateStart":"9/1/2011","dateEnd":"8/31/2012","dateDisplay":"2011–2012","lat":"39.904214","long":"116.407413","dateExpire":"12/31/2012"},{ "ID":"10095", "Category":"Fellowships", "CategoryID":"5", "theDate":"", "Title":"Theodore Rousseau Fellowship ",   "city":"Madrid","country":"Spain","region":"Europe","dateStart":"9/1/2011","dateEnd":"8/31/2012","dateDisplay":"2011–2012","lat":"40.4166909","long":"-3.7003454","dateExpire":"12/31/2012"},{ "ID":"10095", "Category":"Fellowships", "CategoryID":"5", "theDate":"", "Title":"Theodore Rousseau Fellowship ",   "city":"Paris","country":"France","region":"Europe","dateStart":"9/1/2011","dateEnd":"8/31/2012","dateDisplay":"2011–2012","lat":"48.856614","long":"2.3522219","dateExpire":"12/31/2012"},{ "ID":"10089", "Category":"Fellowships", "CategoryID":"5", "theDate":"", "Title":"Theodore Rousseau Fellowship ",   "city":"Copenhagen","country":"Denmark","region":"Europe","dateStart":"9/1/2011","dateEnd":"8/31/2012","dateDisplay":"2011–2012","lat":"55.6760968","long":"12.5683371","dateExpire":"12/31/2012"},{ "ID":"10095", "Category":"Fellowships", "CategoryID":"5", "theDate":"", "Title":"Theodore Rousseau Fellowship ",   "city":"Bern","country":"Switzerland","region":"Europe","dateStart":"9/1/2011","dateEnd":"8/31/2012","dateDisplay":"2011–2012","lat":"46.9479222","long":"7.4446085","dateExpire":"12/31/2012"},{ "ID":"10095", "Category":"Fellowships", "CategoryID":"5", "theDate":"", "Title":"Theodore Rousseau Fellowship ",   "city":"London","country":"United Kingdom","region":"Europe","dateStart":"9/1/2011","dateEnd":"8/31/2012","dateDisplay":"2011–2012","lat":"51.5001524","long":"-0.1262362","dateExpire":"12/31/2012"},{ "ID":"10095", "Category":"Fellowships", "CategoryID":"5", "theDate":"", "Title":"Theodore Rousseau Fellowship ",   "city":"Copenhagen","country":"Denmark","region":"Europe","dateStart":"9/1/2011","dateEnd":"8/31/2012","dateDisplay":"2011–2012","lat":"55.6760968","long":"12.5683371","dateExpire":"12/31/2012"},{ "ID":"10095", "Category":"Fellowships", "CategoryID":"5", "theDate":"", "Title":"Theodore Rousseau Fellowship ",   "city":"Stockholm","country":"Sweden","region":"Europe","dateStart":"9/1/2011","dateEnd":"8/31/2012","dateDisplay":"2011–2012","lat":"59.3327881","long":"18.0644881","dateExpire":"12/31/2012"},{ "ID":"10095", "Category":"Fellowships", "CategoryID":"5", "theDate":"", "Title":"Theodore Rousseau Fellowship ",   "city":"Moscow","country":"Russia","region":"Asia","dateStart":"9/1/2011","dateEnd":"8/31/2012","dateDisplay":"2011–2012","lat":"55.755786","long":"37.617633","dateExpire":"12/31/2012"},{ "ID":"10095", "Category":"Fellowships", "CategoryID":"5", "theDate":"", "Title":"Theodore Rousseau Fellowship ",   "city":"Prague","country":"Czech Republic","region":"Europe","dateStart":"9/1/2011","dateEnd":"8/31/2012","dateDisplay":"2011–2012","lat":"50.0878114","long":"14.4204598","dateExpire":"12/31/2012"},{ "ID":"10095", "Category":"Fellowships", "CategoryID":"5", "theDate":"", "Title":"Theodore Rousseau Fellowship ",   "city":"Budapest","country":"Hungary","region":"Europe","dateStart":"9/1/2011","dateEnd":"8/31/2012","dateDisplay":"2011–2012","lat":"47.4984056","long":"19.0407578","dateExpire":"12/31/2012"},{ "ID":"10095", "Category":"Fellowships", "CategoryID":"5", "theDate":"", "Title":"Theodore Rousseau Fellowship ",   "city":"Athens","country":"Greece","region":"Europe","dateStart":"9/1/2011","dateEnd":"8/31/2012","dateDisplay":"2011–2012","lat":"37.97918","long":"23.716647","dateExpire":"12/31/2012"},{ "ID":"10095", "Category":"Fellowships", "CategoryID":"5", "theDate":"", "Title":"Theodore Rousseau Fellowship ",   "city":"Rome","country":"Italy","region":"Europe","dateStart":"9/1/2011","dateEnd":"8/31/2012","dateDisplay":"2011–2012","lat":"41.8905198","long":"12.4942486","dateExpire":"12/31/2012"},{ "ID":"10096", "Category":"Fellowships", "CategoryID":"5", "theDate":"", "Title":"Annette Kade Fellowship ",   "city":"Ankara","country":"Turkey","region":"Middle East","dateStart":"9/1/2011","dateEnd":"8/31/2012","dateDisplay":"2011–2012","lat":"39.92077","long":"32.85411","dateExpire":"12/31/2012"},{ "ID":"10097", "Category":"Fellowships", "CategoryID":"5", "theDate":"", "Title":"J. Clawson Mills Fellowship ",   "city":"Paris","country":"France","region":"Europe","dateStart":"9/1/2011","dateEnd":"8/31/2012","dateDisplay":"2011–2012","lat":"48.856614","long":"2.3522219","dateExpire":"12/31/2012"},{ "ID":"10098", "Category":"Fellowships", "CategoryID":"5", "theDate":"", "Title":"Andrew W. Mellon Fellowship ",   "city":"Vienna","country":"Austria","region":"Europe","dateStart":"9/1/2011","dateEnd":"8/31/2012","dateDisplay":"2011–2012","lat":"48.2081743","long":"16.3738189","dateExpire":"12/31/2012"},{ "ID":"10099", "Category":"Fellowships", "CategoryID":"5", "theDate":"", "Title":"Sylvan C. Coleman and Pamela Coleman Memorial Fund Fellowship ",   "city":"Bamako","country":"Mali","region":"Africa","dateStart":"9/1/2011","dateEnd":"8/31/2012","dateDisplay":"2011–2012","lat":"12.65","long":"-8","dateExpire":"12/31/2012"},{ "ID":"10099", "Category":"Fellowships", "CategoryID":"5", "theDate":"", "Title":"Sylvan C. Coleman and Pamela Coleman Memorial Fund Fellowship ",   "city":"Nouakchott","country":"Mauritania","region":"Africa","dateStart":"9/1/2011","dateEnd":"8/31/2012","dateDisplay":"2011–2012","lat":"18.084061","long":"-15.97842","dateExpire":"12/31/2012"},{ "ID":"10099", "Category":"Fellowships", "CategoryID":"5", "theDate":"", "Title":"Sylvan C. Coleman and Pamela Coleman Memorial Fund Fellowship ",   "city":"Rabat","country":"Morocco","region":"Africa","dateStart":"9/1/2011","dateEnd":"8/31/2012","dateDisplay":"2011–2012","lat":"34.015049","long":"-6.83272","dateExpire":"12/31/2012"},{ "ID":"10100", "Category":"Fellowships", "CategoryID":"5", "theDate":"", "Title":"Sylvan C. Coleman and Pamela Coleman Memorial Fund Fellowship ",   "city":"Ottawa","country":"Canada","region":"North America","dateStart":"9/1/2011","dateEnd":"8/31/2012","dateDisplay":"2011–2012","lat":"45.411572","long":"-75.698194","dateExpire":"12/31/2012"},{ "ID":"10100", "Category":"Fellowships", "CategoryID":"5", "theDate":"", "Title":"Sylvan C. Coleman and Pamela Coleman Memorial Fund Fellowship ",   "city":"Amsterdam","country":"The Netherlands","region":"Europe","dateStart":"9/1/2011","dateEnd":"8/31/2012","dateDisplay":"2011–2012","lat":"52.3730556","long":"4.8922222","dateExpire":"12/31/2012"},{ "ID":"10100", "Category":"Fellowships", "CategoryID":"5", "theDate":"", "Title":"Sylvan C. Coleman and Pamela Coleman Memorial Fund Fellowship ",   "city":"London","country":"United Kingdom","region":"Europe","dateStart":"9/1/2011","dateEnd":"8/31/2012","dateDisplay":"2011–2012","lat":"51.5001524","long":"-0.1262362","dateExpire":"12/31/2012"},{ "ID":"10100", "Category":"Fellowships", "CategoryID":"5", "theDate":"", "Title":"Sylvan C. Coleman and Pamela Coleman Memorial Fund Fellowship ",   "city":"Paris","country":"France","region":"Europe","dateStart":"9/1/2011","dateEnd":"8/31/2012","dateDisplay":"2011–2012","lat":"48.856614","long":"2.3522219","dateExpire":"12/31/2012"},{ "ID":"10100", "Category":"Fellowships", "CategoryID":"5", "theDate":"", "Title":"Sylvan C. Coleman and Pamela Coleman Memorial Fund Fellowship ",   "city":"Bern","country":"Switzerland","region":"Europe","dateStart":"9/1/2011","dateEnd":"8/31/2012","dateDisplay":"2011–2012","lat":"46.9479222","long":"7.4446085","dateExpire":"12/31/2012"},{ "ID":"10100", "Category":"Fellowships", "CategoryID":"5", "theDate":"", "Title":"Sylvan C. Coleman and Pamela Coleman Memorial Fund Fellowship ",   "city":"Athens","country":"Greece","region":"Europe","dateStart":"9/1/2011","dateEnd":"8/31/2012","dateDisplay":"2011–2012","lat":"37.97918","long":"23.716647","dateExpire":"12/31/2012"},{ "ID":"10101", "Category":"Fellowships", "CategoryID":"5", "theDate":"", "Title":"Andrew W. Mellon Fellowship ",   "city":"Cairo","country":"Egypt","region":"Africa","dateStart":"9/1/2011","dateEnd":"8/31/2012","dateDisplay":"2011–2012","lat":"30.064742","long":"31.249509","dateExpire":"12/31/2012"},{ "ID":"10102", "Category":"Fellowships", "CategoryID":"5", "theDate":"", "Title":"Andrew W. Mellon Fellowship ",   "city":"Seoul","country":"South Korea","region":"Asia","dateStart":"9/1/2011","dateEnd":"8/31/2012","dateDisplay":"2011–2012","lat":"37.566535","long":"126.9779692","dateExpire":"12/31/2012"},{ "ID":"10103", "Category":"Fellowships", "CategoryID":"5", "theDate":"", "Title":"Andrew W. Mellon Fellowship ",   "city":"Moscow","country":"Russia","region":"Asia","dateStart":"9/1/2011","dateEnd":"8/31/2012","dateDisplay":"2011–2012","lat":"55.755786","long":"37.617633","dateExpire":"12/31/2012"},{ "ID":"10104", "Category":"Fellowships", "CategoryID":"5", "theDate":"", "Title":"Jane and Morgan Whitney Fellowship ",   "city":"Dublin","country":"Ireland","region":"Europe","dateStart":"9/1/2011","dateEnd":"8/31/2013","dateDisplay":"2011–2013","lat":"53.344104","long":"-6.2674937","dateExpire":"12/31/2013"},{ "ID":"10104", "Category":"Fellowships", "CategoryID":"5", "theDate":"", "Title":"Jane and Morgan Whitney Fellowship ",   "city":"Edinburgh","country":"United Kingdom","region":"Europe","dateStart":"9/1/2011","dateEnd":"8/31/2013","dateDisplay":"2011–2013","lat":"55.9501755","long":"-3.1875359","dateExpire":"12/31/2013"},{ "ID":"10104", "Category":"Fellowships", "CategoryID":"5", "theDate":"", "Title":"Jane and Morgan Whitney Fellowship ",   "city":"London","country":"United Kingdom","region":"Europe","dateStart":"9/1/2011","dateEnd":"8/31/2013","dateDisplay":"2011–2013","lat":"51.5001524","long":"-0.1262362","dateExpire":"12/31/2013"},{ "ID":"10105", "Category":"Fellowships", "CategoryID":"5", "theDate":"", "Title":"Annette de la Renta Fellowship ",   "city":"Madrid","country":"Spain","region":"Europe","dateStart":"9/1/2011","dateEnd":"8/31/2012","dateDisplay":"2011–2012","lat":"40.4166909","long":"-3.7003454","dateExpire":"12/31/2012"},{ "ID":"10106", "Category":"Fellowships", "CategoryID":"5", "theDate":"", "Title":"Sylvan C. Coleman and Pamela Coleman Memorial Fund Fellowship ",   "city":"Berlin","country":"Germany","region":"Europe","dateStart":"9/1/2011","dateEnd":"8/31/2012","dateDisplay":"2011–2012","lat":"52.5234051","long":"13.4113999","dateExpire":"12/31/2012"},{ "ID":"10106", "Category":"Fellowships", "CategoryID":"5", "theDate":"", "Title":"Sylvan C. Coleman and Pamela Coleman Memorial Fund Fellowship ",   "city":"Lima","country":"Peru","region":"Latin America and the Caribbean","dateStart":"9/1/2011","dateEnd":"8/31/2012","dateDisplay":"2011–2012","lat":"-12.0433333","long":"-77.0283333","dateExpire":"12/31/2012"},{ "ID":"10107", "Category":"Fellowships", "CategoryID":"5", "theDate":"", "Title":"Slifka Foundation Interdisciplinary Fellowship ",   "city":"Brussels","country":"Belgium","region":"Europe","dateStart":"9/1/2011","dateEnd":"8/31/2012","dateDisplay":"2011–2012","lat":"50.8503396","long":"4.3517103","dateExpire":"12/31/2012"},{ "ID":"10108", "Category":"Fellowships", "CategoryID":"5", "theDate":"", "Title":"Jane and Morgan Whitney Fellowship ",   "city":"London","country":"United Kingdom","region":"Europe","dateStart":"9/1/2011","dateEnd":"8/31/2012","dateDisplay":"2011–2012","lat":"51.5001524","long":"-0.1262362","dateExpire":"12/31/2012"},{ "ID":"10108", "Category":"Fellowships", "CategoryID":"5", "theDate":"", "Title":"Jane and Morgan Whitney Fellowship ",   "city":"Athens","country":"Greece","region":"Europe","dateStart":"9/1/2011","dateEnd":"8/31/2012","dateDisplay":"2011–2012","lat":"37.97918","long":"23.716647","dateExpire":"12/31/2012"},{ "ID":"10108", "Category":"Fellowships", "CategoryID":"5", "theDate":"", "Title":"Jane and Morgan Whitney Fellowship ",   "city":"Jerusalem","country":"Israel","region":"Middle East","dateStart":"9/1/2011","dateEnd":"8/31/2012","dateDisplay":"2011–2012","lat":"31.7857","long":"35.2007","dateExpire":"12/31/2012"},{ "ID":"10108", "Category":"Fellowships", "CategoryID":"5", "theDate":"", "Title":"Jane and Morgan Whitney Fellowship ",   "city":"Amman","country":"Jordan","region":"Middle East","dateStart":"9/1/2011","dateEnd":"8/31/2012","dateDisplay":"2011–2012","lat":"31.949381","long":"35.932911","dateExpire":"12/31/2012"},{ "ID":"10109", "Category":"Fellowships", "CategoryID":"5", "theDate":"", "Title":"Chester Dale Fellowship ",   "city":"Brussels","country":"Belgium","region":"Europe","dateStart":"9/1/2011","dateEnd":"8/31/2012","dateDisplay":"2011–2012","lat":"50.8503396","long":"4.3517103","dateExpire":"12/31/2012"},{ "ID":"10110", "Category":"Fellowships", "CategoryID":"5", "theDate":"", "Title":"Andrew W. Mellon Fellowship ",   "city":"Ankara","country":"Turkey","region":"Middle East","dateStart":"9/1/2011","dateEnd":"8/31/2012","dateDisplay":"2011–2012","lat":"39.92077","long":"32.85411","dateExpire":"12/31/2012"},{ "ID":"10110", "Category":"Fellowships", "CategoryID":"5", "theDate":"", "Title":"Andrew W. Mellon Fellowship ",   "city":"Damascus","country":"Syria","region":"Middle East","dateStart":"9/1/2011","dateEnd":"8/31/2012","dateDisplay":"2011–2012","lat":"33.519299","long":"36.31345","dateExpire":"12/31/2012"},{ "ID":"10111", "Category":"Fellowships", "CategoryID":"5", "theDate":"", "Title":"Andrew W. Mellon Postdoctoral Curatorial Fellowship ",   "city":"Tokyo","country":"Japan","region":"Asia","dateStart":"9/1/2011","dateEnd":"8/31/2013","dateDisplay":"2011–2013","lat":"35.6894875","long":"139.6917064","dateExpire":"12/31/2013"},{ "ID":"10099", "Category":"Fellowships", "CategoryID":"5", "theDate":"", "Title":"Sylvan C. Coleman and Pamela Coleman Memorial Fund Fellowship ",   "city":"Ottawa","country":"Canada","region":"North America","dateStart":"9/1/2011","dateEnd":"8/31/2012","dateDisplay":"2011–2012","lat":"45.411572","long":"-75.698194","dateExpire":"12/31/2012"},{ "ID":"10132", "Category":"Fellowships", "CategoryID":"5", "theDate":"", "Title":"Research Scholar ",   "city":"Rome","country":"Italy","region":"Europe","dateStart":"9/1/2011","dateEnd":"12/31/2012","dateDisplay":"2011","lat":"41.8905198","long":"12.4942486","dateExpire":"12/31/2012"},{ "ID":"10135", "Category":"Fellowships", "CategoryID":"5", "theDate":"", "Title":"Research Scholar ",   "city":"Singapore","country":"Singapore","region":"Asia","dateStart":"1/1/2012","dateEnd":"12/31/2012","dateDisplay":"2012","lat":"1.352083","long":"103.819836","dateExpire":"12/31/2012"},{ "ID":"10143", "Category":"Fellowships", "CategoryID":"5", "theDate":"", "Title":"Research Scholar ",   "city":"Tokyo","country":"Japan","region":"Asia","dateStart":"9/1/2011","dateEnd":"12/31/2012","dateDisplay":"2011–2012","lat":"35.6894875","long":"139.6917064","dateExpire":"12/31/2012"},{ "ID":"10045", "Category":"Fellowships", "CategoryID":"5", "theDate":"", "Title":"Theodore Rousseau Fellowship ",   "city":"Ann Arbor, Michigan","country":"U.S.A.","region":"North America","dateStart":"9/1/2011","dateEnd":"8/31/2012","dateDisplay":"2011–2012","lat":"42.2808256","long":"-83.7430378","dateExpire":"12/31/2012"},{ "ID":"10046", "Category":"Fellowships", "CategoryID":"5", "theDate":"", "Title":"Jane and Morgan Whitney Fellowship ",   "city":"Cambridge, Massachusetts ","country":"U.S.A.","region":"North America","dateStart":"9/1/2011","dateEnd":"8/31/2012","dateDisplay":"2011–2012","lat":"42.3736158","long":"-71.1097335","dateExpire":"12/31/2012"},{ "ID":"10078", "Category":"Fellowships", "CategoryID":"5", "theDate":"", "Title":"Douglass Foundation Fellowship in American Art ",   "city":"St. Louis, Missouri","country":"U.S.A.","region":"North America","dateStart":"9/1/2011","dateEnd":"8/31/2013","dateDisplay":"2011–2013","lat":"38.6270025","long":"-90.1994042","dateExpire":"12/31/2013"},{ "ID":"10079", "Category":"Fellowships", "CategoryID":"5", "theDate":"", "Title":"Andrew W. Mellon Postdoctoral Curatorial Fellowship ",   "city":"Venice","country":"Italy","region":"Europe","dateStart":"9/1/2011","dateEnd":"8/31/2012","dateDisplay":"2011–2012","lat":"45.4343363","long":"12.3387844","dateExpire":"12/31/2012"},{ "ID":"10081", "Category":"Fellowships", "CategoryID":"5", "theDate":"", "Title":"Andrew W. Mellon Fellowship ",   "city":"Princeton, New Jersey","country":"U.S.A.","region":"North America","dateStart":"9/1/2011","dateEnd":"8/31/2012","dateDisplay":"2011–2012","lat":"40.3572976","long":"-74.6672226","dateExpire":"12/31/2012"},{ "ID":"10082", "Category":"Fellowships", "CategoryID":"5", "theDate":"", "Title":"Theodore Rousseau Fellowship ",   "city":"Urbana-Champaign, Illinois","country":"U.S.A.","region":"North America","dateStart":"9/1/2011","dateEnd":"8/31/2012","dateDisplay":"2011–2012","lat":"40.1105875","long":"-88.2072697","dateExpire":"12/31/2012"},{ "ID":"10084", "Category":"Fellowships", "CategoryID":"5", "theDate":"", "Title":"Pat O'Connell Memorial Fellowship ",   "city":"Seattle, Washington","country":"U.S.A.","region":"North America","dateStart":"9/1/2011","dateEnd":"8/31/2012","dateDisplay":"2011–2012","lat":"47.6062095","long":"-122.3320708","dateExpire":"12/31/2012"},{ "ID":"10086", "Category":"Fellowships", "CategoryID":"5", "theDate":"", "Title":"Sylvan C. Coleman and Pamela Coleman Memorial Fund Fellowship ",   "city":"Atlanta, Georgia","country":"U.S.A.","region":"North America","dateStart":"9/1/2011","dateEnd":"8/31/2012","dateDisplay":"2011–2012","lat":"33.7489954","long":"-84.3879824","dateExpire":"12/31/2012"},{ "ID":"10088", "Category":"Fellowships", "CategoryID":"5", "theDate":"", "Title":"Theodore Rousseau Fellowship ",   "city":"New York, New York","country":"U.S.A.","region":"North America","dateStart":"9/1/2011","dateEnd":"8/31/2012","dateDisplay":"2011–2012","lat":"40.779501544521715","long":"-73.96202087402344","dateExpire":"12/31/2012"},{ "ID":"10089", "Category":"Fellowships", "CategoryID":"5", "theDate":"", "Title":"Theodore Rousseau Fellowship ",   "city":"New York, New York","country":"U.S.A.","region":"North America","dateStart":"9/1/2011","dateEnd":"8/31/2012","dateDisplay":"2011–2012","lat":"40.779501544521715","long":"-73.96202087402344","dateExpire":"12/31/2012"},{ "ID":"10090", "Category":"Fellowships", "CategoryID":"5", "theDate":"", "Title":"Andrew W. Mellon Fellowship ",   "city":"New York, New York","country":"U.S.A.","region":"North America","dateStart":"9/1/2011","dateEnd":"8/31/2012","dateDisplay":"2011–2012","lat":"40.779501544521715","long":"-73.96202087402344","dateExpire":"12/31/2012"},{ "ID":"10091", "Category":"Fellowships", "CategoryID":"5", "theDate":"", "Title":"Sherman Fairchild Foundation Fellowship ",   "city":"Newark, Delaware","country":"U.S.A.","region":"North America","dateStart":"9/1/2011","dateEnd":"8/31/2012","dateDisplay":"2011–2012","lat":"39.6837226","long":"-75.7496572","dateExpire":"12/31/2012"},{ "ID":"10093", "Category":"Fellowships", "CategoryID":"5", "theDate":"", "Title":"Jane and Morgan Whitney Fellowship ",   "city":"Cambridge","country":"United Kingdom","region":"Europe","dateStart":"9/1/2011","dateEnd":"8/31/2012","dateDisplay":"2011–2012","lat":"52.2025441","long":"0.1312368","dateExpire":"12/31/2012"},{ "ID":"10094", "Category":"Fellowships", "CategoryID":"5", "theDate":"", "Title":"J. Clawson Mills Fellowship ",   "city":"Princeton, New Jersey","country":"U.S.A.","region":"North America","dateStart":"9/1/2011","dateEnd":"8/31/2012","dateDisplay":"2011–2012","lat":"40.3572976","long":"-74.6672226","dateExpire":"12/31/2012"},{ "ID":"10095", "Category":"Fellowships", "CategoryID":"5", "theDate":"", "Title":"Theodore Rousseau Fellowship ",   "city":"New York, New York","country":"U.S.A.","region":"North America","dateStart":"9/1/2011","dateEnd":"8/31/2012","dateDisplay":"2011–2012","lat":"40.779501544521715","long":"-73.96202087402344","dateExpire":"12/31/2012"},{ "ID":"10096", "Category":"Fellowships", "CategoryID":"5", "theDate":"", "Title":"Annette Kade Fellowship ",   "city":"Berlin","country":"Germany","region":"Europe","dateStart":"9/1/2011","dateEnd":"8/31/2012","dateDisplay":"2011–2012","lat":"52.5234051","long":"13.4113999","dateExpire":"12/31/2012"},{ "ID":"10097", "Category":"Fellowships", "CategoryID":"5", "theDate":"", "Title":"J. Clawson Mills Fellowship ",   "city":"Cambridge, Massachusetts ","country":"U.S.A.","region":"North America","dateStart":"9/1/2011","dateEnd":"8/31/2012","dateDisplay":"2011–2012","lat":"42.3736158","long":"-71.1097335","dateExpire":"12/31/2012"},{ "ID":"10099", "Category":"Fellowships", "CategoryID":"5", "theDate":"", "Title":"Sylvan C. Coleman and Pamela Coleman Memorial Fund Fellowship ",   "city":"New Haven, Connecticut","country":"U.S.A.","region":"North America","dateStart":"9/1/2011","dateEnd":"8/31/2012","dateDisplay":"2011–2012","lat":"41.3081527","long":"-72.9281577","dateExpire":"12/31/2012"},{ "ID":"10100", "Category":"Fellowships", "CategoryID":"5", "theDate":"", "Title":"Sylvan C. Coleman and Pamela Coleman Memorial Fund Fellowship ",   "city":"New York, New York","country":"U.S.A.","region":"North America","dateStart":"9/1/2011","dateEnd":"8/31/2012","dateDisplay":"2011–2012","lat":"40.779501544521715","long":"-73.96202087402344","dateExpire":"12/31/2012"},{ "ID":"10102", "Category":"Fellowships", "CategoryID":"5", "theDate":"", "Title":"Andrew W. Mellon Fellowship ",   "city":"Boston, Massaschusetts","country":"U.S.A.","region":"North America","dateStart":"9/1/2011","dateEnd":"8/31/2012","dateDisplay":"2011–2012","lat":"42.3584308","long":"-71.0597732","dateExpire":"12/31/2012"},{ "ID":"10104", "Category":"Fellowships", "CategoryID":"5", "theDate":"", "Title":"Jane and Morgan Whitney Fellowship ",   "city":"New York, New York","country":"U.S.A.","region":"North America","dateStart":"9/1/2011","dateEnd":"8/31/2013","dateDisplay":"2011–2013","lat":"40.779501544521715","long":"-73.96202087402344","dateExpire":"12/31/2013"},{ "ID":"10105", "Category":"Fellowships", "CategoryID":"5", "theDate":"", "Title":"Annette de la Renta Fellowship ",   "city":"Barcelona","country":"Spain","region":"Europe","dateStart":"9/1/2011","dateEnd":"8/31/2012","dateDisplay":"2011–2012","lat":"41.387917","long":"2.1699187","dateExpire":"12/31/2012"},{ "ID":"10106", "Category":"Fellowships", "CategoryID":"5", "theDate":"", "Title":"Sylvan C. Coleman and Pamela Coleman Memorial Fund Fellowship ",   "city":"College Park, Maryland","country":"U.S.A.","region":"North America","dateStart":"9/1/2011","dateEnd":"8/31/2012","dateDisplay":"2011–2012","lat":"38.9896967","long":"-76.93776","dateExpire":"12/31/2012"},{ "ID":"10107", "Category":"Fellowships", "CategoryID":"5", "theDate":"", "Title":"Slifka Foundation Interdisciplinary Fellowship ",   "city":"Bryn Mawr, Pennsylvania","country":"U.S.A.","region":"North America","dateStart":"9/1/2011","dateEnd":"8/31/2012","dateDisplay":"2011–2012","lat":"40.021833","long":"-75.315854","dateExpire":"12/31/2012"},{ "ID":"10108", "Category":"Fellowships", "CategoryID":"5", "theDate":"", "Title":"Jane and Morgan Whitney Fellowship ",   "city":"New York, New York","country":"U.S.A.","region":"North America","dateStart":"9/1/2011","dateEnd":"8/31/2012","dateDisplay":"2011–2012","lat":"40.779501544521715","long":"-73.96202087402344","dateExpire":"12/31/2012"},{ "ID":"10109", "Category":"Fellowships", "CategoryID":"5", "theDate":"", "Title":"Chester Dale Fellowship ",   "city":"Cambridge, Massachusetts ","country":"U.S.A.","region":"North America","dateStart":"9/1/2011","dateEnd":"8/31/2012","dateDisplay":"2011–2012","lat":"42.3736158","long":"-71.1097335","dateExpire":"12/31/2012"},{ "ID":"10110", "Category":"Fellowships", "CategoryID":"5", "theDate":"", "Title":"Andrew W. Mellon Fellowship ",   "city":"New York, New York","country":"U.S.A.","region":"North America","dateStart":"9/1/2011","dateEnd":"8/31/2012","dateDisplay":"2011–2012","lat":"40.779501544521715","long":"-73.96202087402344","dateExpire":"12/31/2012"},{ "ID":"10111", "Category":"Fellowships", "CategoryID":"5", "theDate":"", "Title":"Andrew W. Mellon Postdoctoral Curatorial Fellowship ",   "city":"Toronto","country":"Canada","region":"North America","dateStart":"9/1/2011","dateEnd":"8/31/2013","dateDisplay":"2011–2013","lat":"43.653524","long":"-79.3839069","dateExpire":"12/31/2013"},{ "ID":"10143", "Category":"Fellowships", "CategoryID":"5", "theDate":"", "Title":"Research Scholar ",   "city":"Washington, D.C.","country":"U.S.A.","region":"North America","dateStart":"9/1/2011","dateEnd":"12/31/2012","dateDisplay":"2011–2012","lat":"38.8951118","long":"-77.0363658","dateExpire":"12/31/2012"},{ "ID":"10248", "Category":"Fellowships", "CategoryID":"5", "theDate":"", "Title":"Chester Dale Fellowship ",   "city":"Charlottesville, Virginia","country":"U.S.A.","region":"North America","dateStart":"9/1/2011","dateEnd":"8/31/2012","dateDisplay":"2011–2012","lat":"38.0293059","long":"-78.4766781","dateExpire":"12/31/2012"},{ "ID":"10249", "Category":"Fellowships", "CategoryID":"5", "theDate":"", "Title":"Jane and Morgan Whitney Fellowship ",   "city":"Cambridge, Massachusetts ","country":"U.S.A.","region":"North America","dateStart":"9/1/2011","dateEnd":"8/31/2012","dateDisplay":"2011–2012","lat":"42.3736158","long":"-71.1097335","dateExpire":"12/31/2012"},{ "ID":"10250", "Category":"Fellowships", "CategoryID":"5", "theDate":"", "Title":"Hagop Kevorkian Fellowship ",   "city":"New York, New York","country":"U.S.A.","region":"North America","dateStart":"9/1/2011","dateEnd":"8/31/2013","dateDisplay":"2011–2013","lat":"40.779501544521715","long":"-73.96202087402344","dateExpire":"12/31/2013"},{ "ID":"10251", "Category":"Fellowships", "CategoryID":"5", "theDate":"", "Title":"Jane and Morgan Whitney Fellowship ",   "city":"London","country":"United Kingdom","region":"Europe","dateStart":"9/1/2011","dateEnd":"8/31/2012","dateDisplay":"2011–2012","lat":"51.5001524","long":"-0.1262362","dateExpire":"12/31/2012"},{ "ID":"10252", "Category":"Fellowships", "CategoryID":"5", "theDate":"", "Title":"Chester Dale Fellowship ",   "city":"Rome","country":"Italy","region":"Europe","dateStart":"9/1/2011","dateEnd":"8/31/2012","dateDisplay":"2011–2012","lat":"41.8905198","long":"12.4942486","dateExpire":"12/31/2012"},{ "ID":"10253", "Category":"Fellowships", "CategoryID":"5", "theDate":"", "Title":"Sylvan C. Coleman and Pamela Coleman Memorial Fund Fellowship ",   "city":"Santa Barbara, California","country":"U.S.A.","region":"North America","dateStart":"9/1/2011","dateEnd":"8/31/2012","dateDisplay":"2011–2012","lat":"34.4208305","long":"-119.6981901","dateExpire":"12/31/2012"},{ "ID":"10254", "Category":"Fellowships", "CategoryID":"5", "theDate":"", "Title":"Jane and Morgan Whitney Fellowship ",   "city":"Providence, Rhode Island","country":"U.S.A.","region":"North America","dateStart":"9/1/2011","dateEnd":"8/31/2012","dateDisplay":"2011–2012","lat":"41.8239891","long":"-71.4128343","dateExpire":"12/31/2012"},{ "ID":"10255", "Category":"Fellowships", "CategoryID":"5", "theDate":"", "Title":"Samuel H. Kress Foundation Interpretive Fellowship ",   "city":"Washington, D.C.","country":"U.S.A.","region":"North America","dateStart":"9/1/2011","dateEnd":"8/31/2012","dateDisplay":"2011–2012","lat":"38.8951118","long":"-77.0363658","dateExpire":"12/31/2012"},{ "ID":"10256", "Category":"Fellowships", "CategoryID":"5", "theDate":"", "Title":"Samuel H. Kress Foundation Fellowship in Conservation ",   "city":"New York, New York","country":"U.S.A.","region":"North America","dateStart":"9/1/2011","dateEnd":"8/31/2012","dateDisplay":"2011–2012","lat":"40.779501544521715","long":"-73.96202087402344","dateExpire":"12/31/2012"},{ "ID":"10257", "Category":"Fellowships", "CategoryID":"5", "theDate":"", "Title":"Andrew W. Mellon Fellowship ",   "city":"Los Angeles, California","country":"U.S.A.","region":"North America","dateStart":"9/1/2011","dateEnd":"8/31/2012","dateDisplay":"2011–2012","lat":"34.0522342","long":"-118.2436849","dateExpire":"12/31/2012"},{ "ID":"10258", "Category":"Fellowships", "CategoryID":"5", "theDate":"", "Title":"Andrew W. Mellon Fellowship ",   "city":"New York, New York","country":"U.S.A.","region":"North America","dateStart":"9/1/2011","dateEnd":"8/31/2012","dateDisplay":"2011–2012","lat":"40.779501544521715","long":"-73.96202087402344","dateExpire":"12/31/2012"},{ "ID":"10259", "Category":"Fellowships", "CategoryID":"5", "theDate":"", "Title":"Andrew W. Mellon Fellowship ",   "city":"New York, New York","country":"U.S.A.","region":"North America","dateStart":"9/1/2011","dateEnd":"8/31/2013","dateDisplay":"2011–2013","lat":"40.779501544521715","long":"-73.96202087402344","dateExpire":"12/31/2013"},{ "ID":"10260", "Category":"Fellowships", "CategoryID":"5", "theDate":"", "Title":"Andrew W. Mellon Fellowship ",   "city":"New York, New York","country":"U.S.A.","region":"North America","dateStart":"9/1/2011","dateEnd":"8/31/2012","dateDisplay":"2011–2012","lat":"40.779501544521715","long":"-73.96202087402344","dateExpire":"12/31/2012"},{ "ID":"10261", "Category":"Fellowships", "CategoryID":"5", "theDate":"", "Title":"Andrew W. Mellon Fellowship ",   "city":"Los Angeles, California","country":"U.S.A.","region":"North America","dateStart":"9/1/2011","dateEnd":"8/31/2012","dateDisplay":"2011–2012","lat":"34.0522342","long":"-118.2436849","dateExpire":"12/31/2012"},{ "ID":"10099", "Category":"Fellowships", "CategoryID":"5", "theDate":"", "Title":"Sylvan C. Coleman and Pamela Coleman Memorial Fund Fellowship ",   "city":"Bridgetown","country":"Barbados","region":"Latin America and the Caribbean","dateStart":"9/1/2011","dateEnd":"8/31/2012","dateDisplay":"2011–2012","lat":"13.098938","long":"-59.613352","dateExpire":"12/31/2012"},{ "ID":"10099", "Category":"Fellowships", "CategoryID":"5", "theDate":"", "Title":"Sylvan C. Coleman and Pamela Coleman Memorial Fund Fellowship ",   "city":"Havana","country":"Cuba","region":"Latin America and the Caribbean","dateStart":"9/1/2011","dateEnd":"8/31/2012","dateDisplay":"2011–2012","lat":"23.1168","long":"-82.388557","dateExpire":"12/31/2012"},{ "ID":"10078", "Category":"Fellowships", "CategoryID":"5", "theDate":"", "Title":"Douglass Foundation Fellowship in American Art ",   "city":"Baltimore, Maryland","country":"U.S.A.","region":"North America","dateStart":"9/1/2011","dateEnd":"8/31/2013","dateDisplay":"2011–2013","lat":"39.2903848","long":"-76.6121893","dateExpire":"12/31/2013"},{ "ID":"10078", "Category":"Fellowships", "CategoryID":"5", "theDate":"", "Title":"Douglass Foundation Fellowship in American Art ",   "city":"Washington, D.C.","country":"U.S.A.","region":"North America","dateStart":"9/1/2011","dateEnd":"8/31/2013","dateDisplay":"2011–2013","lat":"38.8951118","long":"-77.0363658","dateExpire":"12/31/2013"},{ "ID":"10078", "Category":"Fellowships", "CategoryID":"5", "theDate":"", "Title":"Douglass Foundation Fellowship in American Art ",   "city":"Albuquerque, New Mexico","country":"U.S.A.","region":"North America","dateStart":"9/1/2011","dateEnd":"8/31/2013","dateDisplay":"2011–2013","lat":"35.0844909","long":"-106.6511367","dateExpire":"12/31/2013"},{ "ID":"10078", "Category":"Fellowships", "CategoryID":"5", "theDate":"", "Title":"Douglass Foundation Fellowship in American Art ",   "city":"New Delhi","country":"India","region":"Asia","dateStart":"9/1/2011","dateEnd":"8/31/2013","dateDisplay":"2011–2013","lat":"28.635308","long":"77.22496","dateExpire":"12/31/2013"},{ "ID":"10078", "Category":"Fellowships", "CategoryID":"5", "theDate":"", "Title":"Douglass Foundation Fellowship in American Art ",   "city":"Los Angeles, California","country":"U.S.A.","region":"North America","dateStart":"9/1/2011","dateEnd":"8/31/2013","dateDisplay":"2011–2013","lat":"34.0522342","long":"-118.2436849","dateExpire":"12/31/2013"},{ "ID":"10090", "Category":"Fellowships", "CategoryID":"5", "theDate":"", "Title":"Andrew W. Mellon Fellowship ",   "city":"Minneapolis, Minnesota","country":"U.S.A.","region":"North America","dateStart":"9/1/2011","dateEnd":"8/31/2012","dateDisplay":"2011–2012","lat":"44.983334","long":"-93.26667","dateExpire":"12/31/2012"},{ "ID":"10094", "Category":"Fellowships", "CategoryID":"5", "theDate":"", "Title":"J. Clawson Mills Fellowship ",   "city":"Kyoto","country":"Japan","region":"Asia","dateStart":"9/1/2011","dateEnd":"8/31/2012","dateDisplay":"2011–2012","lat":"35.0116363","long":"135.7680294","dateExpire":"12/31/2012"},{ "ID":"10093", "Category":"Fellowships", "CategoryID":"5", "theDate":"", "Title":"Jane and Morgan Whitney Fellowship ",   "city":"Washington, D.C.","country":"U.S.A.","region":"North America","dateStart":"9/1/2011","dateEnd":"8/31/2012","dateDisplay":"2011–2012","lat":"38.8951118","long":"-77.0363658","dateExpire":"12/31/2012"},{ "ID":"10097", "Category":"Fellowships", "CategoryID":"5", "theDate":"", "Title":"J. Clawson Mills Fellowship ",   "city":"London","country":"United Kingdom","region":"Europe","dateStart":"9/1/2011","dateEnd":"8/31/2012","dateDisplay":"2011–2012","lat":"51.5001524","long":"-0.1262362","dateExpire":"12/31/2012"},{ "ID":"10108", "Category":"Fellowships", "CategoryID":"5", "theDate":"", "Title":"Jane and Morgan Whitney Fellowship ",   "city":"Nicosia","country":"Cyprus","region":"Europe","dateStart":"9/1/2011","dateEnd":"8/31/2012","dateDisplay":"2011–2012","lat":"35.1666667","long":"33.3666667","dateExpire":"12/31/2012"},{ "ID":"10253", "Category":"Fellowships", "CategoryID":"5", "theDate":"", "Title":"Sylvan C. Coleman and Pamela Coleman Memorial Fund Fellowship ",   "city":"Savannah, Georgia","country":"U.S.A.","region":"North America","dateStart":"9/1/2011","dateEnd":"8/31/2012","dateDisplay":"2011–2012","lat":"32.0835407","long":"-81.0998342","dateExpire":"12/31/2012"},{ "ID":"10253", "Category":"Fellowships", "CategoryID":"5", "theDate":"", "Title":"Sylvan C. Coleman and Pamela Coleman Memorial Fund Fellowship ",   "city":"Los Angeles, California","country":"U.S.A.","region":"North America","dateStart":"9/1/2011","dateEnd":"8/31/2012","dateDisplay":"2011–2012","lat":"34.0522342","long":"-118.2436849","dateExpire":"12/31/2012"},{ "ID":"10261", "Category":"Fellowships", "CategoryID":"5", "theDate":"", "Title":"Andrew W. Mellon Fellowship ",   "city":"Lisbon","country":"Portugal","region":"Europe","dateStart":"","dateEnd":"","dateDisplay":"","lat":"38.706932","long":"-9.1356321","dateExpire":"12/31/2012"},{ "ID":"10261", "Category":"Fellowships", "CategoryID":"5", "theDate":"", "Title":"Andrew W. Mellon Fellowship ",   "city":"Istanbul","country":"Turkey","region":"Middle East","dateStart":"","dateEnd":"","dateDisplay":"","lat":"41.00527","long":"28.97696","dateExpire":"12/31/2012"},{ "ID":"10105", "Category":"Fellowships", "CategoryID":"5", "theDate":"", "Title":"Annette de la Renta Fellowship ",   "city":"San Francisco, California","country":"U.S.A.","region":"North America","dateStart":"9/1/2011","dateEnd":"8/31/2012","dateDisplay":"2011–2012","lat":"37.7749295","long":"-122.4194155","dateExpire":"12/31/2012"},{ "ID":"10105", "Category":"Fellowships", "CategoryID":"5", "theDate":"", "Title":"Annette de la Renta Fellowship ",   "city":"Istanbul","country":"Turkey","region":"Middle East","dateStart":"9/1/2011","dateEnd":"8/31/2012","dateDisplay":"2011–2012","lat":"41.00527","long":"28.97696","dateExpire":"12/31/2012"},{ "ID":"10105", "Category":"Fellowships", "CategoryID":"5", "theDate":"", "Title":"Annette de la Renta Fellowship ",   "city":"Copenhagen","country":"Denmark","region":"Europe","dateStart":"9/1/2011","dateEnd":"8/31/2012","dateDisplay":"2011–2012","lat":"55.6760968","long":"12.5683371","dateExpire":"12/31/2012"},{ "ID":"10103", "Category":"Fellowships", "CategoryID":"5", "theDate":"", "Title":"Andrew W. Mellon Fellowship ",   "city":"San Francisco, California","country":"U.S.A.","region":"North America","dateStart":"9/1/2011","dateEnd":"8/31/2012","dateDisplay":"2011–2012","lat":"37.7749295","long":"-122.4194155","dateExpire":"12/31/2012"},{ "ID":"10103", "Category":"Fellowships", "CategoryID":"5", "theDate":"", "Title":"Andrew W. Mellon Fellowship ",   "city":"Los Angeles, California","country":"U.S.A.","region":"North America","dateStart":"9/1/2011","dateEnd":"8/31/2012","dateDisplay":"2011–2012","lat":"34.0522342","long":"-118.2436849","dateExpire":"12/31/2012"},{ "ID":"10103", "Category":"Fellowships", "CategoryID":"5", "theDate":"", "Title":"Andrew W. Mellon Fellowship ",   "city":"Tuscon, Arizona","country":"U.S.A.","region":"North America","dateStart":"9/1/2011","dateEnd":"8/31/2012","dateDisplay":"2011–2012","lat":"32.2217429","long":"-110.926479","dateExpire":"12/31/2012"},{ "ID":"10103", "Category":"Fellowships", "CategoryID":"5", "theDate":"", "Title":"Andrew W. Mellon Fellowship ",   "city":"Washington, D.C.","country":"U.S.A.","region":"North America","dateStart":"9/1/2011","dateEnd":"8/31/2012","dateDisplay":"","lat":"38.8951118","long":"-77.0363658","dateExpire":"12/31/2012"},{ "ID":"10409", "Category":"Fellowships", "CategoryID":"5", "theDate":"", "Title":"Sylvan C. Coleman and Pamela Coleman Memorial Fund Fellowship ",   "city":"Lahore","country":"11","region":"Asia","dateStart":"9/1/2012","dateEnd":"8/31/2013","dateDisplay":"2012–2013","lat":"31.54505","long":"74.340683","dateExpire":"12/31/2013"},{ "ID":"10410", "Category":"Fellowships", "CategoryID":"5", "theDate":"", "Title":"Andrew W. Mellon Fellowship ",   "city":"New Haven, Connecticut","country":"U.S.A.","region":"North America","dateStart":"9/1/2012","dateEnd":"8/31/2013","dateDisplay":"2012–2013","lat":"41.3081527","long":"-72.9281577","dateExpire":"12/31/2013"},{ "ID":"10411", "Category":"Fellowships", "CategoryID":"5", "theDate":"", "Title":"Sylvan C. Coleman and Pamela Coleman Memorial Fund Fellowship ",   "city":"Marseille","country":"France","region":"Europe","dateStart":"9/1/2012","dateEnd":"8/31/2013","dateDisplay":"2012–2013","lat":"43.296482","long":"5.36978","dateExpire":"12/31/2013"},{ "ID":"10412", "Category":"Fellowships", "CategoryID":"5", "theDate":"", "Title":"Andrew W. Mellon Fellowship ",   "city":"Budapest","country":"Hungary","region":"Europe","dateStart":"9/1/2012","dateEnd":"8/31/2013","dateDisplay":"2012–2013","lat":"47.4984056","long":"19.0407578","dateExpire":"12/31/2013"},{ "ID":"10413", "Category":"Fellowships", "CategoryID":"5", "theDate":"", "Title":"J. Clawson Mills Fellowship ",   "city":"Bordeaux","country":"France","region":"Europe","dateStart":"9/1/2012","dateEnd":"8/31/2013","dateDisplay":"2012–2013","lat":"44.837789","long":"-0.57918","dateExpire":"12/31/2013"},{ "ID":"10414", "Category":"Fellowships", "CategoryID":"5", "theDate":"", "Title":"Andrew W. Mellon Fellowship ",   "city":"Udine","country":"Italy","region":"Europe","dateStart":"9/1/2012","dateEnd":"8/31/2013","dateDisplay":"2012–2013","lat":"46.0710668","long":"13.2345794","dateExpire":"8/31/2013"},{ "ID":"10415", "Category":"Fellowships", "CategoryID":"5", "theDate":"", "Title":"Jane and Morgan Whitney Fellowship ",   "city":"Southhampton","country":"United Kingdom","region":"Europe","dateStart":"9/1/2012","dateEnd":"8/31/2013","dateDisplay":"2012–2013","lat":"50.9515517","long":"-1.3564596","dateExpire":"12/31/2013"},{ "ID":"10416", "Category":"Fellowships", "CategoryID":"5", "theDate":"", "Title":"Jane and Morgan Whitney Fellowship ",   "city":"Princeton, New Jersey","country":"U.S.A.","region":"North America","dateStart":"9/1/2012","dateEnd":"8/31/2013","dateDisplay":"2012–2013","lat":"40.3572976","long":"-74.6672226","dateExpire":"12/31/2013"},{ "ID":"10417", "Category":"Fellowships", "CategoryID":"5", "theDate":"", "Title":"Andrew W. Mellon Fellowship ",   "city":"Cairo","country":"Egypt","region":"Africa","dateStart":"9/1/2012","dateEnd":"8/31/2013","dateDisplay":"2012–2013","lat":"30.064742","long":"31.249509","dateExpire":"12/31/2013"},{ "ID":"10418", "Category":"Fellowships", "CategoryID":"5", "theDate":"", "Title":"Andrew W. Mellon Fellowship ",   "city":"Plymouth","country":"United Kingdom","region":"Europe","dateStart":"9/1/2012","dateEnd":"8/31/2013","dateDisplay":"2012–2013","lat":"50.3703805","long":"-4.142653","dateExpire":"12/31/2013"},{ "ID":"10419", "Category":"Fellowships", "CategoryID":"5", "theDate":"", "Title":"Sylvan C. Coleman and Pamela Coleman Memorial Fund Fellowship ",   "city":"New York, New York","country":"U.S.A.","region":"North America","dateStart":"9/1/2012","dateEnd":"8/31/2013","dateDisplay":"2012–2013","lat":"40.779501544521715","long":"-73.96202087402344","dateExpire":"12/31/2013"},{ "ID":"10420", "Category":"Fellowships", "CategoryID":"5", "theDate":"", "Title":"Slifka Foundation Interdisciplinary Fellowship ",   "city":"Bonn","country":"Germany","region":"Europe","dateStart":"9/1/2012","dateEnd":"8/31/2013","dateDisplay":"2012–2013","lat":"50.7327045","long":"7.0963113","dateExpire":"12/31/2013"},{ "ID":"10421", "Category":"Fellowships", "CategoryID":"5", "theDate":"", "Title":"Bothmer Fellowship ",   "city":"Saint Louis, Missouri","country":"U.S.A.","region":"North America","dateStart":"9/1/2012","dateEnd":"8/31/2013","dateDisplay":"2012–2013","lat":"38.6270025","long":"-90.1994042","dateExpire":"12/31/2013"},{ "ID":"10422", "Category":"Fellowships", "CategoryID":"5", "theDate":"", "Title":"Chester Dale Fellowship ",   "city":"Indianapolis, Indiana","country":"U.S.A.","region":"North America","dateStart":"9/1/2012","dateEnd":"8/31/2013","dateDisplay":"2012–2013","lat":"39.7685155","long":"-86.1580736","dateExpire":"12/31/2013"},{ "ID":"10423", "Category":"Fellowships", "CategoryID":"5", "theDate":"", "Title":"Douglass Foundation Fellowship in American Art ",   "city":"Rochester, New York","country":"U.S.A.","region":"North America","dateStart":"9/1/2012","dateEnd":"8/31/2013","dateDisplay":"2012–2013","lat":"43.16103","long":"-77.6109219","dateExpire":"8/31/2013"},{ "ID":"10424", "Category":"Fellowships", "CategoryID":"5", "theDate":"", "Title":"Andrew W. Mellon Fellowship ",   "city":"New York, New York","country":"U.S.A.","region":"North America","dateStart":"9/1/2012","dateEnd":"8/31/2013","dateDisplay":"2012–2013","lat":"40.779501544521715","long":"-73.96202087402344","dateExpire":"12/31/2013"},{ "ID":"10425", "Category":"Fellowships", "CategoryID":"5", "theDate":"", "Title":"Andrew W. Mellon Fellowship ",   "city":"Stony Brook, New York","country":"U.S.A.","region":"North America","dateStart":"9/1/2012","dateEnd":"8/31/2013","dateDisplay":"2012–2013","lat":"40.9256538","long":"-73.1409429","dateExpire":"12/31/2013"},{ "ID":"10426", "Category":"Fellowships", "CategoryID":"5", "theDate":"", "Title":"Hanns Swarzenski and Brigitte Horney Swarzenski Fellowship ",   "city":"Pisa","country":"Italy","region":"Europe","dateStart":"9/1/2012","dateEnd":"8/31/2013","dateDisplay":"2012–2013","lat":"43.7228386","long":"10.4016888","dateExpire":"12/31/2013"},{ "ID":"10427", "Category":"Fellowships", "CategoryID":"5", "theDate":"", "Title":"Jane and Morgan Whitney Fellowship ",   "city":"New York, New York","country":"U.S.A.","region":"North America","dateStart":"9/1/2012","dateEnd":"8/31/2013","dateDisplay":"2012–2013","lat":"40.779501544521715","long":"-73.96202087402344","dateExpire":"12/31/2013"},{ "ID":"10428", "Category":"Fellowships", "CategoryID":"5", "theDate":"", "Title":"Andrew W. Mellon Fellowship ",   "city":"London","country":"United Kingdom","region":"Europe","dateStart":"9/1/2012","dateEnd":"8/31/2013","dateDisplay":"2012–2013","lat":"51.5001524","long":"-0.1262362","dateExpire":"12/31/2013"},{ "ID":"10429", "Category":"Fellowships", "CategoryID":"5", "theDate":"", "Title":"Sylvan C. Coleman and Pamela Coleman Memorial Fund Fellowship ",   "city":"Philadelphia, Pennsylvania","country":"U.S.A.","region":"North America","dateStart":"9/1/2012","dateEnd":"12/31/2013","dateDisplay":"2012–2013","lat":"39.952335","long":"-75.163789","dateExpire":"12/31/2013"},{ "ID":"10430", "Category":"Fellowships", "CategoryID":"5", "theDate":"", "Title":"Andrew W. Mellon Fellowship ",   "city":"Prague","country":"Czech Republic","region":"Europe","dateStart":"9/1/2012","dateEnd":"8/31/2013","dateDisplay":"2012–2013","lat":"50.0878114","long":"14.4204598","dateExpire":"12/31/2013"},{ "ID":"10431", "Category":"Fellowships", "CategoryID":"5", "theDate":"", "Title":"Theodore Rousseau Fellowship ",   "city":"Philadelphia, Pennsylvania","country":"U.S.A.","region":"North America","dateStart":"9/1/2012","dateEnd":"8/31/2013","dateDisplay":"2012–2013","lat":"39.952335","long":"-75.163789","dateExpire":"12/31/2013"},{ "ID":"10432", "Category":"Fellowships", "CategoryID":"5", "theDate":"", "Title":"Annette Kade Fellowship ",   "city":"Berlin","country":"Germany","region":"Europe","dateStart":"9/1/2012","dateEnd":"8/31/2013","dateDisplay":"2012–2013","lat":"52.5234051","long":"13.4113999","dateExpire":"12/31/2013"},{ "ID":"10433", "Category":"Fellowships", "CategoryID":"5", "theDate":"", "Title":"Andrew W. Mellon Fellowship ",   "city":"Rome","country":"Italy","region":"Europe","dateStart":"9/1/2012","dateEnd":"8/31/2013","dateDisplay":"2012–2013","lat":"41.8905198","long":"12.4942486","dateExpire":"12/31/2013"},{ "ID":"10434", "Category":"Fellowships", "CategoryID":"5", "theDate":"", "Title":"Jane and Morgan Whitney Fellowship ",   "city":"New York, New York","country":"U.S.A.","region":"North America","dateStart":"9/1/2012","dateEnd":"8/31/2013","dateDisplay":"2012–2013","lat":"40.779501544521715","long":"-73.96202087402344","dateExpire":"12/31/2013"},{ "ID":"10435", "Category":"Fellowships", "CategoryID":"5", "theDate":"", "Title":"Jane and Morgan Whitney Fellowship ",   "city":"Chicago, Illinois","country":"U.S.A.","region":"North America","dateStart":"9/1/2012","dateEnd":"8/31/2013","dateDisplay":"2012–2013","lat":"41.8781136","long":"-87.6297982","dateExpire":"12/31/2013"},{ "ID":"10436", "Category":"Fellowships", "CategoryID":"5", "theDate":"", "Title":"Theodore Rousseau Fellowship ",   "city":"New Haven, Connecticut","country":"U.S.A.","region":"North America","dateStart":"9/1/2012","dateEnd":"8/31/2013","dateDisplay":"2012–2013","lat":"41.3081527","long":"-72.9281577","dateExpire":"12/31/2013"},{ "ID":"10437", "Category":"Fellowships", "CategoryID":"5", "theDate":"", "Title":"Andrew W. Mellon Fellowship ",   "city":"Hangzhou","country":"China","region":"Asia","dateStart":"9/1/2012","dateEnd":"12/31/2013","dateDisplay":"2012–2013","lat":"30.274089","long":"120.155069","dateExpire":"12/31/2013"},{ "ID":"10438", "Category":"Fellowships", "CategoryID":"5", "theDate":"", "Title":"Chester Dale Fellowship ",   "city":"Padua","country":"Italy","region":"Europe","dateStart":"9/1/2012","dateEnd":"8/31/2013","dateDisplay":"2012–2013","lat":"45.4064349","long":"11.8767611","dateExpire":"12/31/2013"},{ "ID":"10439", "Category":"Fellowships", "CategoryID":"5", "theDate":"", "Title":"Jane and Morgan Whitney Fellowship ",   "city":"New York, New York","country":"U.S.A.","region":"North America","dateStart":"9/1/2012","dateEnd":"7/31/2013","dateDisplay":"2012–2013","lat":"40.779501544521715","long":"-73.96202087402344","dateExpire":"12/31/2013"},{ "ID":"10440", "Category":"Fellowships", "CategoryID":"5", "theDate":"", "Title":"Jane and Morgan Whitney Fellowship ",   "city":"Newark, New Jersey","country":"U.S.A.","region":"North America","dateStart":"9/1/2012","dateEnd":"8/31/2013","dateDisplay":"2012–2013","lat":"40.735657","long":"-74.1723667","dateExpire":"12/31/2013"},{ "ID":"10441", "Category":"Fellowships", "CategoryID":"5", "theDate":"", "Title":"Sylvan C. Coleman and Pamela Coleman Memorial Fund Fellowship ",   "city":"Philadelphia, Pennsylvania","country":"U.S.A.","region":"North America","dateStart":"9/1/2012","dateEnd":"8/31/2013","dateDisplay":"2012–2013","lat":"39.952335","long":"-75.163789","dateExpire":"12/31/2013"},{ "ID":"10442", "Category":"Fellowships", "CategoryID":"5", "theDate":"", "Title":"Andrew W. Mellon Fellowship ",   "city":"Perugia","country":"Italy","region":"Europe","dateStart":"9/1/2012","dateEnd":"8/31/2013","dateDisplay":"2012–2013","lat":"43.1107168","long":"12.3908279","dateExpire":"12/31/2013"},{ "ID":"10443", "Category":"Fellowships", "CategoryID":"5", "theDate":"", "Title":"Andrew W. Mellon Fellowship ",   "city":"Santa Barbara, California","country":"U.S.A.","region":"North America","dateStart":"9/1/2012","dateEnd":"8/31/2013","dateDisplay":"2012–2013","lat":"34.4208305","long":"-119.6981901","dateExpire":"12/31/2013"},{ "ID":"10444", "Category":"Fellowships", "CategoryID":"5", "theDate":"", "Title":"Andrew W. Mellon Fellowship ",   "city":"Panama City","country":"Panama","region":"Latin America and the Caribbean","dateStart":"9/1/2012","dateEnd":"8/31/2013","dateDisplay":"2012–2013","lat":"8.9942689","long":"-79.518792","dateExpire":"12/31/2013"},{ "ID":"10445", "Category":"Fellowships", "CategoryID":"5", "theDate":"", "Title":"Annette de la Renta Fellowship ",   "city":"New York, New York","country":"U.S.A.","region":"North America","dateStart":"9/1/2012","dateEnd":"8/31/2013","dateDisplay":"2012–2013","lat":"40.779501544521715","long":"-73.96202087402344","dateExpire":"12/31/2013"},{ "ID":"10446", "Category":"Fellowships", "CategoryID":"5", "theDate":"", "Title":"Andrew W. Mellon Fellowship ",   "city":"Venice","country":"Italy","region":"Europe","dateStart":"9/1/2012","dateEnd":"8/31/2013","dateDisplay":"2012–2013","lat":"45.4343363","long":"12.3387844","dateExpire":"12/31/2013"},{ "ID":"10447", "Category":"Fellowships", "CategoryID":"5", "theDate":"", "Title":"Andrew W. Mellon Fellowship ",   "city":"Vienna","country":"Austria","region":"Europe","dateStart":"9/1/2012","dateEnd":"8/31/2013","dateDisplay":"","lat":"48.2081743","long":"16.3738189","dateExpire":"12/31/2013"},{ "ID":"10448", "Category":"Fellowships", "CategoryID":"5", "theDate":"", "Title":"Sherman Fairchild Conservation Fellowship ",   "city":"Paris","country":"France","region":"Europe","dateStart":"9/1/2012","dateEnd":"8/31/2013","dateDisplay":"2012–2013","lat":"48.856614","long":"2.3522219","dateExpire":"12/31/2013"},{ "ID":"10449", "Category":"Fellowships", "CategoryID":"5", "theDate":"", "Title":"Andrew W. Mellon Fellowship ",   "city":"Bologna","country":"Italy","region":"Europe","dateStart":"9/1/2012","dateEnd":"8/31/2013","dateDisplay":"2012–2013","lat":"44.494887","long":"11.3426163","dateExpire":"12/31/2013"},{ "ID":"10450", "Category":"Fellowships", "CategoryID":"5", "theDate":"", "Title":"Andrew W. Mellon Fellowship ",   "city":"Madrid","country":"Spain","region":"Europe","dateStart":"9/1/2012","dateEnd":"8/31/2013","dateDisplay":"2012–2013","lat":"40.4166909","long":"-3.7003454","dateExpire":"12/31/2013"},{ "ID":"10451", "Category":"Fellowships", "CategoryID":"5", "theDate":"", "Title":"Andrew W. Mellon Fellowship ",   "city":"Palermo","country":"Italy","region":"Europe","dateStart":"9/1/2012","dateEnd":"8/31/2013","dateDisplay":"2012–2013","lat":"38.1156879","long":"13.3612671","dateExpire":"12/31/2013"},{ "ID":"10452", "Category":"Fellowships", "CategoryID":"5", "theDate":"", "Title":"Andrew W. Mellon Fellowship ",   "city":"Paris","country":"France","region":"Europe","dateStart":"9/1/2012","dateEnd":"8/31/2013","dateDisplay":"2012–2013","lat":"48.856614","long":"2.3522219","dateExpire":"12/31/2013"},{ "ID":"10453", "Category":"Fellowships", "CategoryID":"5", "theDate":"", "Title":"Andrew W. Mellon Postdoctoral Curatorial Fellowship ",   "city":"Kyoto","country":"Japan","region":"Asia","dateStart":"9/1/2012","dateEnd":"8/31/2013","dateDisplay":"2012–2013","lat":"35.0116363","long":"135.7680294","dateExpire":"12/31/2013"},{ "ID":"10454", "Category":"Fellowships", "CategoryID":"5", "theDate":"", "Title":"Samuel H. Kress Foundation Interpretive Fellowship ",   "city":"New York, New York","country":"U.S.A.","region":"North America","dateStart":"9/1/2012","dateEnd":"8/31/2013","dateDisplay":"2012–2013","lat":"40.779501544521715","long":"-73.96202087402344","dateExpire":"12/31/2013"},{ "ID":"10455", "Category":"Fellowships", "CategoryID":"5", "theDate":"", "Title":"Hagop Kevorkian Fellowship ",   "city":"New York, New York","country":"U.S.A.","region":"North America","dateStart":"9/1/2012","dateEnd":"8/31/2013","dateDisplay":"2012–2013","lat":"40.779501544521715","long":"-73.96202087402344","dateExpire":"12/31/2013"},{ "ID":"10456", "Category":"Fellowships", "CategoryID":"5", "theDate":"", "Title":"Korea Foundation Internship Fellowship ",   "city":"Seoul","country":"South Korea","region":"Asia","dateStart":"9/1/2012","dateEnd":"8/31/2013","dateDisplay":"2012–2013","lat":"37.566535","long":"126.9779692","dateExpire":"12/31/2013"},{ "ID":"10410", "Category":"Fellowships", "CategoryID":"5", "theDate":"", "Title":"Andrew W. Mellon Fellowship ",   "city":"London","country":"United Kingdom","region":"Europe","dateStart":"9/1/2012","dateEnd":"8/31/2013","dateDisplay":"2012–2013","lat":"51.5001524","long":"-0.1262362","dateExpire":"12/31/2013"},{ "ID":"10410", "Category":"Fellowships", "CategoryID":"5", "theDate":"", "Title":"Andrew W. Mellon Fellowship ",   "city":"Paris","country":"France","region":"Europe","dateStart":"9/1/2012","dateEnd":"8/31/2013","dateDisplay":"2012–2013","lat":"48.856614","long":"2.3522219","dateExpire":"12/31/2013"},{ "ID":"10410", "Category":"Fellowships", "CategoryID":"5", "theDate":"", "Title":"Andrew W. Mellon Fellowship ",   "city":"Berlin","country":"Germany","region":"Europe","dateStart":"9/1/2012","dateEnd":"8/31/2013","dateDisplay":"2012–2013","lat":"52.5234051","long":"13.4113999","dateExpire":"12/31/2013"},{ "ID":"10410", "Category":"Fellowships", "CategoryID":"5", "theDate":"", "Title":"Andrew W. Mellon Fellowship ",   "city":"Cairo","country":"Egypt","region":"Africa","dateStart":"9/1/2012","dateEnd":"8/31/2013","dateDisplay":"2012–2013","lat":"30.064742","long":"31.249509","dateExpire":"12/31/2013"},{ "ID":"10411", "Category":"Fellowships", "CategoryID":"5", "theDate":"", "Title":"Sylvan C. Coleman and Pamela Coleman Memorial Fund Fellowship ",   "city":"Cairo","country":"Egypt","region":"Africa","dateStart":"9/1/2012","dateEnd":"8/31/2013","dateDisplay":"2012–2013","lat":"30.064742","long":"31.249509","dateExpire":"12/31/2013"},{ "ID":"10411", "Category":"Fellowships", "CategoryID":"5", "theDate":"", "Title":"Sylvan C. Coleman and Pamela Coleman Memorial Fund Fellowship ",   "city":"Istanbul","country":"Turkey","region":"Middle East","dateStart":"9/1/2012","dateEnd":"8/31/2013","dateDisplay":"2012–2013","lat":"41.00527","long":"28.97696","dateExpire":"12/31/2013"},{ "ID":"10411", "Category":"Fellowships", "CategoryID":"5", "theDate":"", "Title":"Sylvan C. Coleman and Pamela Coleman Memorial Fund Fellowship ",   "city":"Berlin","country":"Germany","region":"Europe","dateStart":"9/1/2012","dateEnd":"8/31/2013","dateDisplay":"2012–2013","lat":"52.5234051","long":"13.4113999","dateExpire":"12/31/2013"},{ "ID":"10412", "Category":"Fellowships", "CategoryID":"5", "theDate":"", "Title":"Andrew W. Mellon Fellowship ",   "city":"Rome","country":"Italy","region":"Europe","dateStart":"9/1/2012","dateEnd":"8/31/2013","dateDisplay":"2012–2013","lat":"41.8905198","long":"12.4942486","dateExpire":"12/31/2013"},{ "ID":"10412", "Category":"Fellowships", "CategoryID":"5", "theDate":"", "Title":"Andrew W. Mellon Fellowship ",   "city":"Naples","country":"Italy","region":"Europe","dateStart":"9/1/2012","dateEnd":"8/31/2013","dateDisplay":"2012–2013","lat":"40.8517746","long":"14.2681244","dateExpire":"12/31/2013"},{ "ID":"10412", "Category":"Fellowships", "CategoryID":"5", "theDate":"", "Title":"Andrew W. Mellon Fellowship ",   "city":"Taranto","country":"Italy","region":"Europe","dateStart":"9/1/2012","dateEnd":"8/31/2013","dateDisplay":"2012–2013","lat":"40.4657939","long":"17.2477784","dateExpire":"12/31/2013"},{ "ID":"10414", "Category":"Fellowships", "CategoryID":"5", "theDate":"", "Title":"Andrew W. Mellon Fellowship ",   "city":"Hartford, Connecticut","country":"U.S.A.","region":"North America","dateStart":"9/1/2012","dateEnd":"8/31/2013","dateDisplay":"2012–2013","lat":"41.7637111","long":"-72.6850932","dateExpire":"8/31/2013"},{ "ID":"10414", "Category":"Fellowships", "CategoryID":"5", "theDate":"", "Title":"Andrew W. Mellon Fellowship ",   "city":"Boston, Massaschusetts","country":"U.S.A.","region":"North America","dateStart":"9/1/2012","dateEnd":"8/31/2013","dateDisplay":"2012–2013","lat":"42.3584308","long":"-71.0597732","dateExpire":"8/31/2013"},{ "ID":"10414", "Category":"Fellowships", "CategoryID":"5", "theDate":"", "Title":"Andrew W. Mellon Fellowship ",   "city":"Baltimore, Maryland","country":"U.S.A.","region":"North America","dateStart":"9/1/2012","dateEnd":"8/31/2013","dateDisplay":"2012–2013","lat":"39.2903848","long":"-76.6121893","dateExpire":"8/31/2013"},{ "ID":"10414", "Category":"Fellowships", "CategoryID":"5", "theDate":"", "Title":"Andrew W. Mellon Fellowship ",   "city":"Washington, D.C.","country":"U.S.A.","region":"North America","dateStart":"9/1/2012","dateEnd":"8/31/2013","dateDisplay":"2012–2013","lat":"38.8951118","long":"-77.0363658","dateExpire":"8/31/2013"},{ "ID":"10414", "Category":"Fellowships", "CategoryID":"5", "theDate":"", "Title":"Andrew W. Mellon Fellowship ",   "city":"Norfolk, Virginia","country":"U.S.A.","region":"North America","dateStart":"9/1/2012","dateEnd":"8/31/2013","dateDisplay":"2012–2013","lat":"36.8507689","long":"-76.2858726","dateExpire":"8/31/2013"},{ "ID":"10415", "Category":"Fellowships", "CategoryID":"5", "theDate":"", "Title":"Jane and Morgan Whitney Fellowship ",   "city":"Rome","country":"Italy","region":"Europe","dateStart":"9/1/2012","dateEnd":"8/31/2013","dateDisplay":"2012–2013","lat":"41.8905198","long":"12.4942486","dateExpire":"12/31/2013"},{ "ID":"10415", "Category":"Fellowships", "CategoryID":"5", "theDate":"", "Title":"Jane and Morgan Whitney Fellowship ",   "city":"Naples","country":"Italy","region":"Europe","dateStart":"9/1/2012","dateEnd":"8/31/2013","dateDisplay":"2012–2013","lat":"40.8517746","long":"14.2681244","dateExpire":"12/31/2013"},{ "ID":"10415", "Category":"Fellowships", "CategoryID":"5", "theDate":"", "Title":"Jane and Morgan Whitney Fellowship ",   "city":"Parma","country":"Italy","region":"Europe","dateStart":"9/1/2012","dateEnd":"8/31/2013","dateDisplay":"2012–2013","lat":"44.801485","long":"10.3279036","dateExpire":"12/31/2013"},{ "ID":"10415", "Category":"Fellowships", "CategoryID":"5", "theDate":"", "Title":"Jane and Morgan Whitney Fellowship ",   "city":"Subiaco","country":"Italy","region":"Europe","dateStart":"9/1/2012","dateEnd":"8/31/2013","dateDisplay":"2012–2013","lat":"41.9246531","long":"13.0936685","dateExpire":"12/31/2013"},{ "ID":"10416", "Category":"Fellowships", "CategoryID":"5", "theDate":"", "Title":"Jane and Morgan Whitney Fellowship ",   "city":"Montauban","country":"France","region":"Europe","dateStart":"9/1/2012","dateEnd":"8/31/2013","dateDisplay":"","lat":"44.016079","long":"1.35295","dateExpire":"12/31/2013"},{ "ID":"10416", "Category":"Fellowships", "CategoryID":"5", "theDate":"", "Title":"Jane and Morgan Whitney Fellowship ",   "city":"Florence","country":"Italy","region":"Europe","dateStart":"9/1/2012","dateEnd":"8/31/2013","dateDisplay":"2012–2013","lat":"43.7687324","long":"11.2569013","dateExpire":"12/31/2013"},{ "ID":"10418", "Category":"Fellowships", "CategoryID":"5", "theDate":"", "Title":"Andrew W. Mellon Fellowship ",   "city":"Princeton, New Jersey","country":"U.S.A.","region":"North America","dateStart":"9/1/2012","dateEnd":"8/31/2013","dateDisplay":"2012–2013","lat":"40.3572976","long":"-74.6672226","dateExpire":"12/31/2013"},{ "ID":"10418", "Category":"Fellowships", "CategoryID":"5", "theDate":"", "Title":"Andrew W. Mellon Fellowship ",   "city":"Philadelphia, Pennsylvania","country":"U.S.A.","region":"North America","dateStart":"9/1/2012","dateEnd":"8/31/2013","dateDisplay":"2012–2013","lat":"39.952335","long":"-75.163789","dateExpire":"12/31/2013"},{ "ID":"10418", "Category":"Fellowships", "CategoryID":"5", "theDate":"", "Title":"Andrew W. Mellon Fellowship ",   "city":"Cleveland, Ohio","country":"U.S.A.","region":"North America","dateStart":"9/1/2012","dateEnd":"8/31/2013","dateDisplay":"2012–2013","lat":"41.4994954","long":"-81.6954088","dateExpire":"12/31/2013"},{ "ID":"10418", "Category":"Fellowships", "CategoryID":"5", "theDate":"", "Title":"Andrew W. Mellon Fellowship ",   "city":"Providence, Rhode Island","country":"U.S.A.","region":"North America","dateStart":"9/1/2012","dateEnd":"8/31/2013","dateDisplay":"2012–2013","lat":"41.8239891","long":"-71.4128343","dateExpire":"12/31/2013"},{ "ID":"10418", "Category":"Fellowships", "CategoryID":"5", "theDate":"", "Title":"Andrew W. Mellon Fellowship ",   "city":"Williamstown, Massuchusetts","country":"U.S.A.","region":"North America","dateStart":"9/1/2012","dateEnd":"8/31/2013","dateDisplay":"2012–2013","lat":"42.7120249","long":"-73.2037177","dateExpire":"12/31/2013"},{ "ID":"10418", "Category":"Fellowships", "CategoryID":"5", "theDate":"", "Title":"Andrew W. Mellon Fellowship ",   "city":"Detroit, Michigan","country":"U.S.A.","region":"North America","dateStart":"9/1/2012","dateEnd":"8/31/2013","dateDisplay":"2012–2013","lat":"42.331427","long":"-83.0457538","dateExpire":"12/31/2013"},{ "ID":"10418", "Category":"Fellowships", "CategoryID":"5", "theDate":"", "Title":"Andrew W. Mellon Fellowship ",   "city":"St. Louis, Missouri","country":"U.S.A.","region":"North America","dateStart":"9/1/2012","dateEnd":"8/31/2013","dateDisplay":"2012–2013","lat":"38.6270025","long":"-90.1994042","dateExpire":"12/31/2013"},{ "ID":"10418", "Category":"Fellowships", "CategoryID":"5", "theDate":"", "Title":"Andrew W. Mellon Fellowship ",   "city":"Brunswick, Maine","country":"U.S.A.","region":"North America","dateStart":"9/1/2012","dateEnd":"8/31/2013","dateDisplay":"2012–2013","lat":"43.9140162","long":"-69.9669961","dateExpire":"12/31/2013"},{ "ID":"10418", "Category":"Fellowships", "CategoryID":"5", "theDate":"", "Title":"Andrew W. Mellon Fellowship ",   "city":"Northampton, Massachusetts","country":"U.S.A.","region":"North America","dateStart":"9/1/2012","dateEnd":"8/31/2013","dateDisplay":"2012–2013","lat":"42.3250896","long":"-72.6412013","dateExpire":"12/31/2013"},{ "ID":"10419", "Category":"Fellowships", "CategoryID":"5", "theDate":"", "Title":"Sylvan C. Coleman and Pamela Coleman Memorial Fund Fellowship ",   "city":"Washington, D.C.","country":"U.S.A.","region":"North America","dateStart":"9/1/2012","dateEnd":"8/31/2013","dateDisplay":"2012–2013","lat":"38.8951118","long":"-77.0363658","dateExpire":"12/31/2013"},{ "ID":"10419", "Category":"Fellowships", "CategoryID":"5", "theDate":"", "Title":"Sylvan C. Coleman and Pamela Coleman Memorial Fund Fellowship ",   "city":"Cambridge, Massachusetts ","country":"U.S.A.","region":"North America","dateStart":"9/1/2012","dateEnd":"8/31/2013","dateDisplay":"2012–2013","lat":"42.3736158","long":"-71.1097335","dateExpire":"12/31/2013"},{ "ID":"10420", "Category":"Fellowships", "CategoryID":"5", "theDate":"", "Title":"Slifka Foundation Interdisciplinary Fellowship ",   "city":"Brussels","country":"Belgium","region":"Europe","dateStart":"9/1/2012","dateEnd":"8/31/2013","dateDisplay":"2012–2013","lat":"50.8503396","long":"4.3517103","dateExpire":"12/31/2013"},{ "ID":"10421", "Category":"Fellowships", "CategoryID":"5", "theDate":"", "Title":"Bothmer Fellowship ",   "city":"Palermo","country":"Italy","region":"Europe","dateStart":"9/1/2012","dateEnd":"8/31/2013","dateDisplay":"2012–2013","lat":"38.1156879","long":"13.3612671","dateExpire":"12/31/2013"},{ "ID":"10421", "Category":"Fellowships", "CategoryID":"5", "theDate":"", "Title":"Bothmer Fellowship ",   "city":"Sicily","country":"Italy","region":"Europe","dateStart":"9/1/2012","dateEnd":"8/31/2013","dateDisplay":"2012–2013","lat":"37.63163475580643","long":"14.12841796875","dateExpire":"12/31/2013"},{ "ID":"10421", "Category":"Fellowships", "CategoryID":"5", "theDate":"", "Title":"Bothmer Fellowship ",   "city":"St. Louis, Missouri","country":"U.S.A.","region":"North America","dateStart":"9/1/2012","dateEnd":"8/31/2013","dateDisplay":"2012–2013","lat":"38.6270025","long":"-90.1994042","dateExpire":"12/31/2013"},{ "ID":"10422", "Category":"Fellowships", "CategoryID":"5", "theDate":"", "Title":"Chester Dale Fellowship ",   "city":"Valencia","country":"Spain","region":"Europe","dateStart":"9/1/2012","dateEnd":"8/31/2013","dateDisplay":"2012–2013","lat":"39.4702393","long":"-0.3768049","dateExpire":"12/31/2013"},{ "ID":"10422", "Category":"Fellowships", "CategoryID":"5", "theDate":"", "Title":"Chester Dale Fellowship ",   "city":"Barcelona","country":"Spain","region":"Europe","dateStart":"9/1/2012","dateEnd":"8/31/2013","dateDisplay":"2012–2013","lat":"41.387917","long":"2.1699187","dateExpire":"12/31/2013"},{ "ID":"10422", "Category":"Fellowships", "CategoryID":"5", "theDate":"", "Title":"Chester Dale Fellowship ",   "city":"Zaragoza","country":"Spain","region":"Europe","dateStart":"9/1/2012","dateEnd":"8/31/2013","dateDisplay":"2012–2013","lat":"41.6568307","long":"-0.8799101","dateExpire":"12/31/2013"},{ "ID":"10422", "Category":"Fellowships", "CategoryID":"5", "theDate":"", "Title":"Chester Dale Fellowship ",   "city":"Palencia","country":"Spain","region":"Europe","dateStart":"9/1/2012","dateEnd":"8/31/2013","dateDisplay":"2012–2013","lat":"42.0124584","long":"-4.5311748","dateExpire":"12/31/2013"},{ "ID":"10422", "Category":"Fellowships", "CategoryID":"5", "theDate":"", "Title":"Chester Dale Fellowship ",   "city":"Astorga","country":"Spain","region":"Europe","dateStart":"9/1/2012","dateEnd":"8/31/2013","dateDisplay":"2012–2013","lat":"42.4589013","long":"-6.0635263","dateExpire":"12/31/2013"},{ "ID":"10423", "Category":"Fellowships", "CategoryID":"5", "theDate":"", "Title":"Douglass Foundation Fellowship in American Art ",   "city":"Hartford, Connecticut","country":"U.S.A.","region":"North America","dateStart":"9/1/2012","dateEnd":"8/31/2013","dateDisplay":"2012–2013","lat":"41.7637111","long":"-72.6850932","dateExpire":"8/31/2013"},{ "ID":"10423", "Category":"Fellowships", "CategoryID":"5", "theDate":"", "Title":"Douglass Foundation Fellowship in American Art ",   "city":"New Haven, Connecticut","country":"U.S.A.","region":"North America","dateStart":"9/1/2012","dateEnd":"8/31/2013","dateDisplay":"2012–2013","lat":"41.3081527","long":"-72.9281577","dateExpire":"8/31/2013"},{ "ID":"10423", "Category":"Fellowships", "CategoryID":"5", "theDate":"", "Title":"Douglass Foundation Fellowship in American Art ",   "city":"Indianapolis, Indiana","country":"U.S.A.","region":"North America","dateStart":"9/1/2012","dateEnd":"8/31/2013","dateDisplay":"2012–2013","lat":"39.7685155","long":"-86.1580736","dateExpire":"8/31/2013"},{ "ID":"10423", "Category":"Fellowships", "CategoryID":"5", "theDate":"", "Title":"Douglass Foundation Fellowship in American Art ",   "city":"Washington, D.C.","country":"U.S.A.","region":"North America","dateStart":"9/1/2012","dateEnd":"8/31/2013","dateDisplay":"2012–2013","lat":"38.8951118","long":"-77.0363658","dateExpire":"8/31/2013"},{ "ID":"10424", "Category":"Fellowships", "CategoryID":"5", "theDate":"", "Title":"Andrew W. Mellon Fellowship ",   "city":"Shanghai","country":"China","region":"Asia","dateStart":"9/1/2012","dateEnd":"8/31/2013","dateDisplay":"2012–2013","lat":"31.230393","long":"121.473704","dateExpire":"12/31/2013"},{ "ID":"10424", "Category":"Fellowships", "CategoryID":"5", "theDate":"", "Title":"Andrew W. Mellon Fellowship ",   "city":"Seoul","country":"South Korea","region":"Asia","dateStart":"9/1/2012","dateEnd":"8/31/2013","dateDisplay":"2012–2013","lat":"37.566535","long":"126.9779692","dateExpire":"12/31/2013"},{ "ID":"10424", "Category":"Fellowships", "CategoryID":"5", "theDate":"", "Title":"Andrew W. Mellon Fellowship ",   "city":"Tokyo","country":"Japan","region":"Asia","dateStart":"9/1/2012","dateEnd":"8/31/2013","dateDisplay":"2012–2013","lat":"35.6894875","long":"139.6917064","dateExpire":"12/31/2013"},{ "ID":"10424", "Category":"Fellowships", "CategoryID":"5", "theDate":"", "Title":"Andrew W. Mellon Fellowship ",   "city":"Tokugawa","country":"Japan","region":"Asia","dateStart":"9/1/2012","dateEnd":"8/31/2013","dateDisplay":"2012–2013","lat":"35.18205","long":"136.9278181","dateExpire":"12/31/2013"},{ "ID":"10424", "Category":"Fellowships", "CategoryID":"5", "theDate":"", "Title":"Andrew W. Mellon Fellowship ",   "city":"London","country":"United Kingdom","region":"Europe","dateStart":"9/1/2012","dateEnd":"8/31/2013","dateDisplay":"2012–2013","lat":"51.5001524","long":"-0.1262362","dateExpire":"12/31/2013"},{ "ID":"10426", "Category":"Fellowships", "CategoryID":"5", "theDate":"", "Title":"Hanns Swarzenski and Brigitte Horney Swarzenski Fellowship ",   "city":"London","country":"United Kingdom","region":"Europe","dateStart":"9/1/2012","dateEnd":"8/31/2013","dateDisplay":"2012–2013","lat":"51.5001524","long":"-0.1262362","dateExpire":"12/31/2013"},{ "ID":"10426", "Category":"Fellowships", "CategoryID":"5", "theDate":"", "Title":"Hanns Swarzenski and Brigitte Horney Swarzenski Fellowship ",   "city":"Paris","country":"France","region":"Europe","dateStart":"9/1/2012","dateEnd":"8/31/2013","dateDisplay":"2012–2013","lat":"48.856614","long":"2.3522219","dateExpire":"12/31/2013"},{ "ID":"10426", "Category":"Fellowships", "CategoryID":"5", "theDate":"", "Title":"Hanns Swarzenski and Brigitte Horney Swarzenski Fellowship ",   "city":"Offenbach","country":"Germany","region":"Europe","dateStart":"9/1/2012","dateEnd":"8/31/2013","dateDisplay":"2012–2013","lat":"50.0956362","long":"8.7760843","dateExpire":"12/31/2013"},{ "ID":"10427", "Category":"Fellowships", "CategoryID":"5", "theDate":"", "Title":"Jane and Morgan Whitney Fellowship ",   "city":"Palo Alto, California","country":"U.S.A.","region":"North America","dateStart":"9/1/2012","dateEnd":"8/31/2013","dateDisplay":"2012–2013","lat":"37.4418834","long":"-122.1430195","dateExpire":"12/31/2013"},{ "ID":"10427", "Category":"Fellowships", "CategoryID":"5", "theDate":"", "Title":"Jane and Morgan Whitney Fellowship ",   "city":"Washington, D.C.","country":"U.S.A.","region":"North America","dateStart":"9/1/2012","dateEnd":"8/31/2013","dateDisplay":"2012–2013","lat":"38.8951118","long":"-77.0363658","dateExpire":"12/31/2013"},{ "ID":"10428", "Category":"Fellowships", "CategoryID":"5", "theDate":"", "Title":"Andrew W. Mellon Fellowship ",   "city":"Princeton, New Jersey","country":"U.S.A.","region":"North America","dateStart":"9/1/2012","dateEnd":"8/31/2013","dateDisplay":"2012–2013","lat":"40.3572976","long":"-74.6672226","dateExpire":"12/31/2013"},{ "ID":"10428", "Category":"Fellowships", "CategoryID":"5", "theDate":"", "Title":"Andrew W. Mellon Fellowship ",   "city":"Boston, Massaschusetts","country":"U.S.A.","region":"North America","dateStart":"9/1/2012","dateEnd":"8/31/2013","dateDisplay":"2012–2013","lat":"42.3584308","long":"-71.0597732","dateExpire":"12/31/2013"},{ "ID":"10428", "Category":"Fellowships", "CategoryID":"5", "theDate":"", "Title":"Andrew W. Mellon Fellowship ",   "city":"Washington, D.C.","country":"U.S.A.","region":"North America","dateStart":"9/1/2012","dateEnd":"8/31/2013","dateDisplay":"2012–2013","lat":"38.8951118","long":"-77.0363658","dateExpire":"12/31/2013"},{ "ID":"10428", "Category":"Fellowships", "CategoryID":"5", "theDate":"", "Title":"Andrew W. Mellon Fellowship ",   "city":"Madison, Wisconsin","country":"U.S.A.","region":"North America","dateStart":"9/1/2012","dateEnd":"8/31/2013","dateDisplay":"2012–2013","lat":"43.0730517","long":"-89.4012302","dateExpire":"12/31/2013"},{ "ID":"10428", "Category":"Fellowships", "CategoryID":"5", "theDate":"", "Title":"Andrew W. Mellon Fellowship ",   "city":"Kansas City, Missouri","country":"U.S.A.","region":"North America","dateStart":"9/1/2012","dateEnd":"8/31/2013","dateDisplay":"2012–2013","lat":"39.0997265","long":"-94.5785667","dateExpire":"12/31/2013"},{ "ID":"10429", "Category":"Fellowships", "CategoryID":"5", "theDate":"", "Title":"Sylvan C. Coleman and Pamela Coleman Memorial Fund Fellowship ",   "city":"Berlin","country":"Germany","region":"Europe","dateStart":"9/1/2012","dateEnd":"12/31/2013","dateDisplay":"2012–2013","lat":"52.5234051","long":"13.4113999","dateExpire":"12/31/2013"},{ "ID":"10431", "Category":"Fellowships", "CategoryID":"5", "theDate":"", "Title":"Theodore Rousseau Fellowship ",   "city":"Ghent","country":"Belgium","region":"Europe","dateStart":"9/1/2012","dateEnd":"8/31/2013","dateDisplay":"2012–2013","lat":"51.053468","long":"3.73038","dateExpire":"12/31/2013"},{ "ID":"10431", "Category":"Fellowships", "CategoryID":"5", "theDate":"", "Title":"Theodore Rousseau Fellowship ",   "city":"Bruges","country":"Belgium","region":"Europe","dateStart":"9/1/2012","dateEnd":"8/31/2013","dateDisplay":"2012–2013","lat":"51.2108365","long":"3.2248692","dateExpire":"12/31/2013"},{ "ID":"10431", "Category":"Fellowships", "CategoryID":"5", "theDate":"", "Title":"Theodore Rousseau Fellowship ",   "city":"Antwerp","country":"Belgium","region":"Europe","dateStart":"9/1/2012","dateEnd":"8/31/2013","dateDisplay":"2012–2013","lat":"51.21992","long":"4.39625","dateExpire":"12/31/2013"},{ "ID":"10431", "Category":"Fellowships", "CategoryID":"5", "theDate":"", "Title":"Theodore Rousseau Fellowship ",   "city":"Brussels","country":"Belgium","region":"Europe","dateStart":"9/1/2012","dateEnd":"8/31/2013","dateDisplay":"2012–2013","lat":"50.8503396","long":"4.3517103","dateExpire":"12/31/2013"},{ "ID":"10431", "Category":"Fellowships", "CategoryID":"5", "theDate":"", "Title":"Theodore Rousseau Fellowship ",   "city":"Amsterdam","country":"The Netherlands","region":"Europe","dateStart":"9/1/2012","dateEnd":"8/31/2013","dateDisplay":"2012–2013","lat":"52.3730556","long":"4.8922222","dateExpire":"12/31/2013"},{ "ID":"10431", "Category":"Fellowships", "CategoryID":"5", "theDate":"", "Title":"Theodore Rousseau Fellowship ",   "city":"Gdansk","country":"Poland","region":"Europe","dateStart":"9/1/2012","dateEnd":"8/31/2013","dateDisplay":"2012–2013","lat":"54.3520252","long":"18.6466384","dateExpire":"12/31/2013"},{ "ID":"10431", "Category":"Fellowships", "CategoryID":"5", "theDate":"", "Title":"Theodore Rousseau Fellowship ",   "city":"Vienna","country":"Austria","region":"Europe","dateStart":"9/1/2012","dateEnd":"8/31/2013","dateDisplay":"2012–2013","lat":"48.2081743","long":"16.3738189","dateExpire":"12/31/2013"},{ "ID":"10431", "Category":"Fellowships", "CategoryID":"5", "theDate":"", "Title":"Theodore Rousseau Fellowship ",   "city":"Budapest","country":"Hungary","region":"Europe","dateStart":"9/1/2012","dateEnd":"8/31/2013","dateDisplay":"2012–2013","lat":"47.4984056","long":"19.0407578","dateExpire":"12/31/2013"},{ "ID":"10431", "Category":"Fellowships", "CategoryID":"5", "theDate":"", "Title":"Theodore Rousseau Fellowship ",   "city":"Rome","country":"Italy","region":"Europe","dateStart":"9/1/2012","dateEnd":"8/31/2013","dateDisplay":"2012–2013","lat":"41.8905198","long":"12.4942486","dateExpire":"12/31/2013"},{ "ID":"10431", "Category":"Fellowships", "CategoryID":"5", "theDate":"", "Title":"Theodore Rousseau Fellowship ",   "city":"Madrid","country":"Spain","region":"Europe","dateStart":"9/1/2012","dateEnd":"8/31/2013","dateDisplay":"2012–2013","lat":"40.4166909","long":"-3.7003454","dateExpire":"12/31/2013"},{ "ID":"10431", "Category":"Fellowships", "CategoryID":"5", "theDate":"", "Title":"Theodore Rousseau Fellowship ",   "city":"Palermo","country":"Italy","region":"Europe","dateStart":"9/1/2012","dateEnd":"8/31/2013","dateDisplay":"2012–2013","lat":"38.1156879","long":"13.3612671","dateExpire":"12/31/2013"},{ "ID":"10431", "Category":"Fellowships", "CategoryID":"5", "theDate":"", "Title":"Theodore Rousseau Fellowship ",   "city":"Paris","country":"France","region":"Europe","dateStart":"9/1/2012","dateEnd":"8/31/2013","dateDisplay":"2012–2013","lat":"48.856614","long":"2.3522219","dateExpire":"12/31/2013"},{ "ID":"10431", "Category":"Fellowships", "CategoryID":"5", "theDate":"", "Title":"Theodore Rousseau Fellowship ",   "city":"Rouen","country":"France","region":"Europe","dateStart":"9/1/2012","dateEnd":"8/31/2013","dateDisplay":"2012–2013","lat":"49.443232","long":"1.099971","dateExpire":"12/31/2013"},{ "ID":"10431", "Category":"Fellowships", "CategoryID":"5", "theDate":"", "Title":"Theodore Rousseau Fellowship ",   "city":"London","country":"United Kingdom","region":"Europe","dateStart":"9/1/2012","dateEnd":"8/31/2013","dateDisplay":"2012–2013","lat":"51.5001524","long":"-0.1262362","dateExpire":"12/31/2013"},{ "ID":"10432", "Category":"Fellowships", "CategoryID":"5", "theDate":"", "Title":"Annette Kade Fellowship ",   "city":"Philadelphia, Pennsylvania","country":"U.S.A.","region":"North America","dateStart":"9/1/2012","dateEnd":"8/31/2013","dateDisplay":"2012–2013","lat":"39.952335","long":"-75.163789","dateExpire":"12/31/2013"},{ "ID":"10432", "Category":"Fellowships", "CategoryID":"5", "theDate":"", "Title":"Annette Kade Fellowship ",   "city":"Washington, D.C.","country":"U.S.A.","region":"North America","dateStart":"9/1/2012","dateEnd":"8/31/2013","dateDisplay":"2012–2013","lat":"38.8951118","long":"-77.0363658","dateExpire":"12/31/2013"},{ "ID":"10432", "Category":"Fellowships", "CategoryID":"5", "theDate":"", "Title":"Annette Kade Fellowship ",   "city":"Cleveland, Ohio","country":"U.S.A.","region":"North America","dateStart":"9/1/2012","dateEnd":"8/31/2013","dateDisplay":"2012–2013","lat":"41.4994954","long":"-81.6954088","dateExpire":"12/31/2013"},{ "ID":"10432", "Category":"Fellowships", "CategoryID":"5", "theDate":"", "Title":"Annette Kade Fellowship ",   "city":"Detroit, Michigan","country":"U.S.A.","region":"North America","dateStart":"9/1/2012","dateEnd":"8/31/2013","dateDisplay":"2012–2013","lat":"42.331427","long":"-83.0457538","dateExpire":"12/31/2013"},{ "ID":"10432", "Category":"Fellowships", "CategoryID":"5", "theDate":"", "Title":"Annette Kade Fellowship ",   "city":"Toronto","country":"Canada","region":"North America","dateStart":"9/1/2012","dateEnd":"8/31/2013","dateDisplay":"2012–2013","lat":"43.653524","long":"-79.3839069","dateExpire":"12/31/2013"},{ "ID":"10432", "Category":"Fellowships", "CategoryID":"5", "theDate":"", "Title":"Annette Kade Fellowship ",   "city":"Cambridge, Massachusetts ","country":"U.S.A.","region":"North America","dateStart":"9/1/2012","dateEnd":"8/31/2013","dateDisplay":"2012–2013","lat":"42.3736158","long":"-71.1097335","dateExpire":"12/31/2013"},{ "ID":"10432", "Category":"Fellowships", "CategoryID":"5", "theDate":"", "Title":"Annette Kade Fellowship ",   "city":"New Haven, Connecticut","country":"U.S.A.","region":"North America","dateStart":"9/1/2012","dateEnd":"8/31/2013","dateDisplay":"2012–2013","lat":"41.3081527","long":"-72.9281577","dateExpire":"12/31/2013"},{ "ID":"10432", "Category":"Fellowships", "CategoryID":"5", "theDate":"", "Title":"Annette Kade Fellowship ",   "city":"San Marino, California","country":"U.S.A.","region":"North America","dateStart":"9/1/2012","dateEnd":"8/31/2013","dateDisplay":"2012–2013","lat":"34.121397","long":"-118.1064585","dateExpire":"12/31/2013"},{ "ID":"10432", "Category":"Fellowships", "CategoryID":"5", "theDate":"", "Title":"Annette Kade Fellowship ",   "city":"Los Angeles, California","country":"U.S.A.","region":"North America","dateStart":"9/1/2012","dateEnd":"8/31/2013","dateDisplay":"2012–2013","lat":"34.0522342","long":"-118.2436849","dateExpire":"12/31/2013"},{ "ID":"10433", "Category":"Fellowships", "CategoryID":"5", "theDate":"", "Title":"Andrew W. Mellon Fellowship ",   "city":"Hagerstown, Maryland","country":"U.S.A.","region":"North America","dateStart":"9/1/2012","dateEnd":"8/31/2013","dateDisplay":"2012–2013","lat":"39.6417629","long":"-77.7199932","dateExpire":"12/31/2013"},{ "ID":"10433", "Category":"Fellowships", "CategoryID":"5", "theDate":"", "Title":"Andrew W. Mellon Fellowship ",   "city":"Washington, D.C.","country":"U.S.A.","region":"North America","dateStart":"9/1/2012","dateEnd":"8/31/2013","dateDisplay":"2012–2013","lat":"38.8951118","long":"-77.0363658","dateExpire":"12/31/2013"},{ "ID":"10433", "Category":"Fellowships", "CategoryID":"5", "theDate":"", "Title":"Andrew W. Mellon Fellowship ",   "city":"Boston, Massaschusetts","country":"U.S.A.","region":"North America","dateStart":"9/1/2012","dateEnd":"8/31/2013","dateDisplay":"2012–2013","lat":"42.3584308","long":"-71.0597732","dateExpire":"12/31/2013"},{ "ID":"10433", "Category":"Fellowships", "CategoryID":"5", "theDate":"", "Title":"Andrew W. Mellon Fellowship ",   "city":"Williamstown, Massuchusetts","country":"U.S.A.","region":"North America","dateStart":"9/1/2012","dateEnd":"8/31/2013","dateDisplay":"2012–2013","lat":"42.7120249","long":"-73.2037177","dateExpire":"12/31/2013"},{ "ID":"10433", "Category":"Fellowships", "CategoryID":"5", "theDate":"", "Title":"Andrew W. Mellon Fellowship ",   "city":"Cleveland, Ohio","country":"U.S.A.","region":"North America","dateStart":"9/1/2012","dateEnd":"8/31/2013","dateDisplay":"2012–2013","lat":"41.4994954","long":"-81.6954088","dateExpire":"12/31/2013"},{ "ID":"10433", "Category":"Fellowships", "CategoryID":"5", "theDate":"", "Title":"Andrew W. Mellon Fellowship ",   "city":"London","country":"United Kingdom","region":"Europe","dateStart":"9/1/2012","dateEnd":"8/31/2013","dateDisplay":"2012–2013","lat":"51.5001524","long":"-0.1262362","dateExpire":"12/31/2013"},{ "ID":"10433", "Category":"Fellowships", "CategoryID":"5", "theDate":"", "Title":"Andrew W. Mellon Fellowship ",   "city":"Oxford","country":"United Kingdom","region":"Europe","dateStart":"9/1/2012","dateEnd":"8/31/2013","dateDisplay":"2012–2013","lat":"51.751724","long":"-1.255285","dateExpire":"12/31/2013"},{ "ID":"10433", "Category":"Fellowships", "CategoryID":"5", "theDate":"", "Title":"Andrew W. Mellon Fellowship ",   "city":"Paris","country":"France","region":"Europe","dateStart":"9/1/2012","dateEnd":"8/31/2013","dateDisplay":"2012–2013","lat":"48.856614","long":"2.3522219","dateExpire":"12/31/2013"},{ "ID":"10433", "Category":"Fellowships", "CategoryID":"5", "theDate":"", "Title":"Andrew W. Mellon Fellowship ",   "city":"Rennes","country":"France","region":"Europe","dateStart":"9/1/2012","dateEnd":"8/31/2013","dateDisplay":"2012–2013","lat":"48.113475","long":"-1.675708","dateExpire":"12/31/2013"},{ "ID":"10434", "Category":"Fellowships", "CategoryID":"5", "theDate":"", "Title":"Jane and Morgan Whitney Fellowship ",   "city":"Mumbai","country":"India","region":"Asia","dateStart":"9/1/2012","dateEnd":"8/31/2013","dateDisplay":"2012–2013","lat":"19.0759837","long":"72.8776559","dateExpire":"12/31/2013"},{ "ID":"10434", "Category":"Fellowships", "CategoryID":"5", "theDate":"", "Title":"Jane and Morgan Whitney Fellowship ",   "city":"Bhavnagar","country":"India","region":"Asia","dateStart":"9/1/2012","dateEnd":"8/31/2013","dateDisplay":"2012–2013","lat":"21.7644725","long":"72.1519304","dateExpire":"12/31/2013"},{ "ID":"10434", "Category":"Fellowships", "CategoryID":"5", "theDate":"", "Title":"Jane and Morgan Whitney Fellowship ",   "city":"Gujurat","country":"India","region":"Asia","dateStart":"9/1/2012","dateEnd":"8/31/2013","dateDisplay":"2012–2013","lat":"22.258652","long":"71.1923805","dateExpire":"12/31/2013"},{ "ID":"10434", "Category":"Fellowships", "CategoryID":"5", "theDate":"", "Title":"Jane and Morgan Whitney Fellowship ",   "city":"Jaipur","country":"India","region":"Asia","dateStart":"9/1/2012","dateEnd":"8/31/2013","dateDisplay":"2012–2013","lat":"26.9124165","long":"75.7872879","dateExpire":"12/31/2013"},{ "ID":"10434", "Category":"Fellowships", "CategoryID":"5", "theDate":"", "Title":"Jane and Morgan Whitney Fellowship ",   "city":"Rajasthan","country":"India","region":"Asia","dateStart":"9/1/2012","dateEnd":"8/31/2013","dateDisplay":"2012–2013","lat":"27.0238036","long":"74.2179326","dateExpire":"12/31/2013"},{ "ID":"10434", "Category":"Fellowships", "CategoryID":"5", "theDate":"", "Title":"Jane and Morgan Whitney Fellowship ",   "city":"Varanasi","country":"India","region":"Asia","dateStart":"9/1/2012","dateEnd":"8/31/2013","dateDisplay":"2012–2013","lat":"25.3176452","long":"82.9739144","dateExpire":"12/31/2013"},{ "ID":"10434", "Category":"Fellowships", "CategoryID":"5", "theDate":"", "Title":"Jane and Morgan Whitney Fellowship ",   "city":"Uttar Pradesh","country":"India","region":"Asia","dateStart":"9/1/2012","dateEnd":"8/31/2013","dateDisplay":"2012–2013","lat":"27.5705886","long":"80.0981869","dateExpire":"12/31/2013"},{ "ID":"10434", "Category":"Fellowships", "CategoryID":"5", "theDate":"", "Title":"Jane and Morgan Whitney Fellowship ",   "city":"Kolkata","country":"India","region":"Asia","dateStart":"9/1/2012","dateEnd":"8/31/2013","dateDisplay":"2012–2013","lat":"22.572646","long":"88.363895","dateExpire":"12/31/2013"},{ "ID":"10434", "Category":"Fellowships", "CategoryID":"5", "theDate":"", "Title":"Jane and Morgan Whitney Fellowship ",   "city":"West Bengal","country":"India","region":"Asia","dateStart":"9/1/2012","dateEnd":"8/31/2013","dateDisplay":"2012–2013","lat":"22.9867569","long":"87.8549755","dateExpire":"12/31/2013"},{ "ID":"10435", "Category":"Fellowships", "CategoryID":"5", "theDate":"", "Title":"Jane and Morgan Whitney Fellowship ",   "city":"London","country":"United Kingdom","region":"Europe","dateStart":"9/1/2012","dateEnd":"8/31/2013","dateDisplay":"2012–2013","lat":"51.5001524","long":"-0.1262362","dateExpire":"12/31/2013"},{ "ID":"10435", "Category":"Fellowships", "CategoryID":"5", "theDate":"", "Title":"Jane and Morgan Whitney Fellowship ",   "city":"Berlin","country":"Germany","region":"Europe","dateStart":"9/1/2012","dateEnd":"8/31/2013","dateDisplay":"2012–2013","lat":"52.5234051","long":"13.4113999","dateExpire":"12/31/2013"},{ "ID":"10436", "Category":"Fellowships", "CategoryID":"5", "theDate":"", "Title":"Theodore Rousseau Fellowship ",   "city":"London","country":"United Kingdom","region":"Europe","dateStart":"9/1/2012","dateEnd":"8/31/2013","dateDisplay":"2012–2013","lat":"51.5001524","long":"-0.1262362","dateExpire":"12/31/2013"},{ "ID":"10436", "Category":"Fellowships", "CategoryID":"5", "theDate":"", "Title":"Theodore Rousseau Fellowship ",   "city":"Pune","country":"India","region":"Asia","dateStart":"9/1/2012","dateEnd":"8/31/2013","dateDisplay":"2012–2013","lat":"18.5204303","long":"73.8567437","dateExpire":"12/31/2013"},{ "ID":"10436", "Category":"Fellowships", "CategoryID":"5", "theDate":"", "Title":"Theodore Rousseau Fellowship ",   "city":"Berlin","country":"Germany","region":"Europe","dateStart":"9/1/2012","dateEnd":"8/31/2013","dateDisplay":"2012–2013","lat":"52.5234051","long":"13.4113999","dateExpire":"12/31/2013"},{ "ID":"10436", "Category":"Fellowships", "CategoryID":"5", "theDate":"", "Title":"Theodore Rousseau Fellowship ",   "city":"Paris","country":"France","region":"Europe","dateStart":"9/1/2012","dateEnd":"8/31/2013","dateDisplay":"2012–2013","lat":"48.856614","long":"2.3522219","dateExpire":"12/31/2013"},{ "ID":"10436", "Category":"Fellowships", "CategoryID":"5", "theDate":"", "Title":"Theodore Rousseau Fellowship ",   "city":"Richmond, Virginia","country":"U.S.A.","region":"North America","dateStart":"9/1/2012","dateEnd":"8/31/2013","dateDisplay":"2012–2013","lat":"37.5407246","long":"-77.4360481","dateExpire":"12/31/2013"},{ "ID":"10436", "Category":"Fellowships", "CategoryID":"5", "theDate":"", "Title":"Theodore Rousseau Fellowship ",   "city":"Chicago, Illinois","country":"U.S.A.","region":"North America","dateStart":"9/1/2012","dateEnd":"8/31/2013","dateDisplay":"2012–2013","lat":"41.8781136","long":"-87.6297982","dateExpire":"12/31/2013"},{ "ID":"10437", "Category":"Fellowships", "CategoryID":"5", "theDate":"", "Title":"Andrew W. Mellon Fellowship ",   "city":"Princeton, New Jersey","country":"U.S.A.","region":"North America","dateStart":"9/1/2012","dateEnd":"12/31/2013","dateDisplay":"2012–2013","lat":"40.3572976","long":"-74.6672226","dateExpire":"12/31/2013"},{ "ID":"10437", "Category":"Fellowships", "CategoryID":"5", "theDate":"", "Title":"Andrew W. Mellon Fellowship ",   "city":"Boston, Massaschusetts","country":"U.S.A.","region":"North America","dateStart":"9/1/2012","dateEnd":"12/31/2013","dateDisplay":"2012–2013","lat":"42.3584308","long":"-71.0597732","dateExpire":"12/31/2013"},{ "ID":"10437", "Category":"Fellowships", "CategoryID":"5", "theDate":"", "Title":"Andrew W. Mellon Fellowship ",   "city":"Washington, D.C.","country":"U.S.A.","region":"North America","dateStart":"9/1/2012","dateEnd":"12/31/2013","dateDisplay":"2012–2013","lat":"38.8951118","long":"-77.0363658","dateExpire":"12/31/2013"},{ "ID":"10437", "Category":"Fellowships", "CategoryID":"5", "theDate":"", "Title":"Andrew W. Mellon Fellowship ",   "city":"Taipei","country":"Taiwan","region":"Asia","dateStart":"9/1/2012","dateEnd":"12/31/2013","dateDisplay":"2012–2013","lat":"25.091075","long":"121.5598345","dateExpire":"12/31/2013"},{ "ID":"10437", "Category":"Fellowships", "CategoryID":"5", "theDate":"", "Title":"Andrew W. Mellon Fellowship ",   "city":"Tokyo","country":"Japan","region":"Asia","dateStart":"9/1/2012","dateEnd":"12/31/2013","dateDisplay":"2012–2013","lat":"35.6894875","long":"139.6917064","dateExpire":"12/31/2013"},{ "ID":"10437", "Category":"Fellowships", "CategoryID":"5", "theDate":"", "Title":"Andrew W. Mellon Fellowship ",   "city":"Beijing","country":"China","region":"Asia","dateStart":"9/1/2012","dateEnd":"12/31/2013","dateDisplay":"2012–2013","lat":"39.904214","long":"116.407413","dateExpire":"12/31/2013"},{ "ID":"10437", "Category":"Fellowships", "CategoryID":"5", "theDate":"", "Title":"Andrew W. Mellon Fellowship ",   "city":"Shanghai","country":"China","region":"Asia","dateStart":"9/1/2012","dateEnd":"12/31/2013","dateDisplay":"2012–2013","lat":"31.230393","long":"121.473704","dateExpire":"12/31/2013"},{ "ID":"10437", "Category":"Fellowships", "CategoryID":"5", "theDate":"", "Title":"Andrew W. Mellon Fellowship ",   "city":"Xian","country":"China","region":"Asia","dateStart":"9/1/2012","dateEnd":"12/31/2013","dateDisplay":"2012–2013","lat":"34.264987","long":"108.944269","dateExpire":"12/31/2013"},{ "ID":"10104", "Category":"Fellowships", "CategoryID":"5", "theDate":"", "Title":"Jane and Morgan Whitney Fellowship ",   "city":"Southhampton","country":"United Kingdom","region":"Europe","dateStart":"","dateEnd":"","dateDisplay":"","lat":"50.9515517","long":"-1.3564596","dateExpire":"12/31/2013"},{ "ID":"10104", "Category":"Fellowships", "CategoryID":"5", "theDate":"", "Title":"Jane and Morgan Whitney Fellowship ",   "city":"Paris","country":"France","region":"Europe","dateStart":"","dateEnd":"","dateDisplay":"","lat":"48.856614","long":"2.3522219","dateExpire":"12/31/2013"},{ "ID":"10438", "Category":"Fellowships", "CategoryID":"5", "theDate":"", "Title":"Chester Dale Fellowship ",   "city":"Washington, D.C.","country":"U.S.A.","region":"North America","dateStart":"9/1/2012","dateEnd":"8/31/2013","dateDisplay":"2012–2013","lat":"38.8951118","long":"-77.0363658","dateExpire":"12/31/2013"},{ "ID":"10438", "Category":"Fellowships", "CategoryID":"5", "theDate":"", "Title":"Chester Dale Fellowship ",   "city":"Princeton, New Jersey","country":"U.S.A.","region":"North America","dateStart":"9/1/2012","dateEnd":"8/31/2013","dateDisplay":"2012–2013","lat":"40.3572976","long":"-74.6672226","dateExpire":"12/31/2013"},{ "ID":"10438", "Category":"Fellowships", "CategoryID":"5", "theDate":"", "Title":"Chester Dale Fellowship ",   "city":"Cleveland, Ohio","country":"U.S.A.","region":"North America","dateStart":"9/1/2012","dateEnd":"8/31/2013","dateDisplay":"2012–2013","lat":"41.4994954","long":"-81.6954088","dateExpire":"12/31/2013"},{ "ID":"10438", "Category":"Fellowships", "CategoryID":"5", "theDate":"", "Title":"Chester Dale Fellowship ",   "city":"Chicago, Illinois","country":"U.S.A.","region":"North America","dateStart":"9/1/2012","dateEnd":"8/31/2013","dateDisplay":"2012–2013","lat":"41.8781136","long":"-87.6297982","dateExpire":"12/31/2013"},{ "ID":"10438", "Category":"Fellowships", "CategoryID":"5", "theDate":"", "Title":"Chester Dale Fellowship ",   "city":"Detroit, Michigan","country":"U.S.A.","region":"North America","dateStart":"9/1/2012","dateEnd":"8/31/2013","dateDisplay":"2012–2013","lat":"42.331427","long":"-83.0457538","dateExpire":"12/31/2013"},{ "ID":"10438", "Category":"Fellowships", "CategoryID":"5", "theDate":"", "Title":"Chester Dale Fellowship ",   "city":"Newport, Rhode Island","country":"U.S.A.","region":"North America","dateStart":"9/1/2012","dateEnd":"8/31/2013","dateDisplay":"2012–2013","lat":"41.4901024","long":"-71.3128285","dateExpire":"12/31/2013"},{ "ID":"10438", "Category":"Fellowships", "CategoryID":"5", "theDate":"", "Title":"Chester Dale Fellowship ",   "city":"Boston, Massaschusetts","country":"U.S.A.","region":"North America","dateStart":"9/1/2012","dateEnd":"8/31/2013","dateDisplay":"2012–2013","lat":"42.3584308","long":"-71.0597732","dateExpire":"12/31/2013"},{ "ID":"10438", "Category":"Fellowships", "CategoryID":"5", "theDate":"", "Title":"Chester Dale Fellowship ",   "city":"Hartford, Connecticut","country":"U.S.A.","region":"North America","dateStart":"9/1/2012","dateEnd":"8/31/2013","dateDisplay":"2012–2013","lat":"41.7637111","long":"-72.6850932","dateExpire":"12/31/2013"},{ "ID":"10438", "Category":"Fellowships", "CategoryID":"5", "theDate":"", "Title":"Chester Dale Fellowship ",   "city":"Amherst, Massachusetts","country":"U.S.A.","region":"North America","dateStart":"9/1/2012","dateEnd":"8/31/2013","dateDisplay":"2012–2013","lat":"42.366667","long":"-72.516667","dateExpire":"12/31/2013"},{ "ID":"10439", "Category":"Fellowships", "CategoryID":"5", "theDate":"", "Title":"Jane and Morgan Whitney Fellowship ",   "city":"Beijing","country":"China","region":"Asia","dateStart":"9/1/2012","dateEnd":"7/31/2013","dateDisplay":"2012–2013","lat":"39.904214","long":"116.407413","dateExpire":"12/31/2013"},{ "ID":"10439", "Category":"Fellowships", "CategoryID":"5", "theDate":"", "Title":"Jane and Morgan Whitney Fellowship ",   "city":"Tianjiang","country":"China","region":"Asia","dateStart":"9/1/2012","dateEnd":"7/31/2013","dateDisplay":"2012–2013","lat":"26.07541","long":"119.2088479","dateExpire":"12/31/2013"},{ "ID":"10439", "Category":"Fellowships", "CategoryID":"5", "theDate":"", "Title":"Jane and Morgan Whitney Fellowship ",   "city":"Shanxi","country":"China","region":"Asia","dateStart":"9/1/2012","dateEnd":"7/31/2013","dateDisplay":"2012–2013","lat":"37.873376","long":"112.562569","dateExpire":"12/31/2013"},{ "ID":"10439", "Category":"Fellowships", "CategoryID":"5", "theDate":"", "Title":"Jane and Morgan Whitney Fellowship ",   "city":"Jiangsu","country":"China","region":"Asia","dateStart":"9/1/2012","dateEnd":"7/31/2013","dateDisplay":"2012–2013","lat":"32.061707","long":"118.763232","dateExpire":"12/31/2013"},{ "ID":"10439", "Category":"Fellowships", "CategoryID":"5", "theDate":"", "Title":"Jane and Morgan Whitney Fellowship ",   "city":"Hangzhou","country":"China","region":"Asia","dateStart":"9/1/2012","dateEnd":"7/31/2013","dateDisplay":"2012–2013","lat":"30.274089","long":"120.155069","dateExpire":"12/31/2013"},{ "ID":"10440", "Category":"Fellowships", "CategoryID":"5", "theDate":"", "Title":"Jane and Morgan Whitney Fellowship ",   "city":"New Haven, Connecticut","country":"U.S.A.","region":"North America","dateStart":"9/1/2012","dateEnd":"8/31/2013","dateDisplay":"2012–2013","lat":"41.3081527","long":"-72.9281577","dateExpire":"12/31/2013"},{ "ID":"10440", "Category":"Fellowships", "CategoryID":"5", "theDate":"", "Title":"Jane and Morgan Whitney Fellowship ",   "city":"Philadelphia, Pennsylvania","country":"U.S.A.","region":"North America","dateStart":"9/1/2012","dateEnd":"8/31/2013","dateDisplay":"2012–2013","lat":"39.952335","long":"-75.163789","dateExpire":"12/31/2013"},{ "ID":"10440", "Category":"Fellowships", "CategoryID":"5", "theDate":"", "Title":"Jane and Morgan Whitney Fellowship ",   "city":"Washington, D.C.","country":"U.S.A.","region":"North America","dateStart":"9/1/2012","dateEnd":"8/31/2013","dateDisplay":"2012–2013","lat":"38.8951118","long":"-77.0363658","dateExpire":"12/31/2013"},{ "ID":"10441", "Category":"Fellowships", "CategoryID":"5", "theDate":"", "Title":"Sylvan C. Coleman and Pamela Coleman Memorial Fund Fellowship ",   "city":"Muscat","country":"Oman","region":"Middle East","dateStart":"9/1/2012","dateEnd":"8/31/2013","dateDisplay":"2012–2013","lat":"23.61","long":"58.54","dateExpire":"12/31/2013"},{ "ID":"10441", "Category":"Fellowships", "CategoryID":"5", "theDate":"", "Title":"Sylvan C. Coleman and Pamela Coleman Memorial Fund Fellowship ",   "city":"Paris","country":"France","region":"Europe","dateStart":"9/1/2012","dateEnd":"8/31/2013","dateDisplay":"2012–2013","lat":"48.856614","long":"2.3522219","dateExpire":"12/31/2013"},{ "ID":"10441", "Category":"Fellowships", "CategoryID":"5", "theDate":"", "Title":"Sylvan C. Coleman and Pamela Coleman Memorial Fund Fellowship ",   "city":"Berlin","country":"Germany","region":"Europe","dateStart":"9/1/2012","dateEnd":"8/31/2013","dateDisplay":"2012–2013","lat":"52.5234051","long":"13.4113999","dateExpire":"12/31/2013"},{ "ID":"10441", "Category":"Fellowships", "CategoryID":"5", "theDate":"", "Title":"Sylvan C. Coleman and Pamela Coleman Memorial Fund Fellowship ",   "city":"Amman","country":"Jordan","region":"Middle East","dateStart":"9/1/2012","dateEnd":"8/31/2013","dateDisplay":"2012–2013","lat":"31.949381","long":"35.932911","dateExpire":"12/31/2013"},{ "ID":"10441", "Category":"Fellowships", "CategoryID":"5", "theDate":"", "Title":"Sylvan C. Coleman and Pamela Coleman Memorial Fund Fellowship ",   "city":"London","country":"United Kingdom","region":"Europe","dateStart":"9/1/2012","dateEnd":"8/31/2013","dateDisplay":"2012–2013","lat":"51.5001524","long":"-0.1262362","dateExpire":"12/31/2013"},{ "ID":"10441", "Category":"Fellowships", "CategoryID":"5", "theDate":"", "Title":"Sylvan C. Coleman and Pamela Coleman Memorial Fund Fellowship ",   "city":"Cambridge","country":"United Kingdom","region":"Europe","dateStart":"9/1/2012","dateEnd":"8/31/2013","dateDisplay":"2012–2013","lat":"52.2025441","long":"0.1312368","dateExpire":"12/31/2013"},{ "ID":"10458", "Category":"Fellowships", "CategoryID":"5", "theDate":"", "Title":"Research Scholar ",   "city":"Cairo","country":"Egypt","region":"Africa","dateStart":"10/1/2012","dateEnd":"3/31/2013","dateDisplay":"2012–2013","lat":"30.064742","long":"31.249509","dateExpire":"12/31/2013"},{ "ID":"10459", "Category":"Fellowships", "CategoryID":"5", "theDate":"", "Title":"Research Scholar ",   "city":"Amsterdam","country":"The Netherlands","region":"Europe","dateStart":"10/1/2012","dateEnd":"5/31/2013","dateDisplay":"2012–2013","lat":"52.3730556","long":"4.8922222","dateExpire":"12/31/2013"},{ "ID":"10415", "Category":"Fellowships", "CategoryID":"5", "theDate":"", "Title":"Jane and Morgan Whitney Fellowship ",   "city":"Venice","country":"Italy","region":"Europe","dateStart":"9/1/2012","dateEnd":"8/31/2013","dateDisplay":"2012–2013","lat":"45.4343363","long":"12.3387844","dateExpire":"12/31/2013"},{ "ID":"10424", "Category":"Fellowships", "CategoryID":"5", "theDate":"", "Title":"Andrew W. Mellon Fellowship ",   "city":"Nezu","country":"Japan","region":"Asia","dateStart":"9/1/2012","dateEnd":"8/31/2013","dateDisplay":"2012–2013","lat":"35.7192113","long":"139.7646047","dateExpire":"12/31/2013"},{ "ID":"10430", "Category":"Fellowships", "CategoryID":"5", "theDate":"", "Title":"Andrew W. Mellon Fellowship ",   "city":"Dahshur","country":"Egypt","region":"Africa","dateStart":"","dateEnd":"","dateDisplay":"","lat":"29.7516","long":"31.2361","dateExpire":"12/31/2013"},{ "ID":"10120", "Category":"Exchanges and Collaborations", "CategoryID":"6", "theDate":"", "Title":"The Moscow Kremlin / The Metropolitan Museum of Art Staff Exchange Program ",   "city":"Moscow","country":"Russia","region":"Asia","dateStart":"1/1/2005","dateEnd":"11/15/2015","dateDisplay":"2005–present","lat":"55.755786","long":"37.617633","dateExpire":"7/31/2025"},{ "ID":"10121", "Category":"Exchanges and Collaborations", "CategoryID":"6", "theDate":"", "Title":"The State Hermitage Museum / The Metropolitan Museum of Art Staff Exchange Program ",   "city":"St. Petersberg","country":"Russia","region":"Asia","dateStart":"1/1/1993","dateEnd":"11/14/2015","dateDisplay":"1993–2000/2003–present","lat":"59.939039","long":"30.315785","dateExpire":"7/31/2025"},{ "ID":"10122", "Category":"Exchanges and Collaborations", "CategoryID":"6", "theDate":"", "Title":"The Victoria and Albert Museum / The Metropolitan Museum of Art Staff Exchange Program ",   "city":"London","country":"United Kingdom","region":"Europe","dateStart":"1/1/2004","dateEnd":"11/13/2015","dateDisplay":"2004–present","lat":"51.5001524","long":"-0.1262362","dateExpire":"7/31/2025"},{ "ID":"10123", "Category":"Exchanges and Collaborations", "CategoryID":"6", "theDate":"", "Title":"Romanian Museums / The Metropolitan Museum of Art Staff Exchange Program ",   "city":"Bucharest","country":"Romania","region":"Europe","dateStart":"1/1/2006","dateEnd":"11/12/2015","dateDisplay":"2006–present","lat":"44.437711","long":"26.097367","dateExpire":"7/31/2025"},{ "ID":"10124", "Category":"Exchanges and Collaborations", "CategoryID":"6", "theDate":"", "Title":"American Academy in Rome Fellowship ",   "city":"Rome","country":"Italy","region":"Europe","dateStart":"1/1/2000","dateEnd":"11/11/2015","dateDisplay":"2000–present","lat":"41.8905198","long":"12.4942486","dateExpire":"7/31/2025"},{ "ID":"10125", "Category":"Exchanges and Collaborations", "CategoryID":"6", "theDate":"", "Title":"Andrew W. Mellon Foundation Cultural Exchange Program ",   "city":"Beijing","country":"China","region":"Asia","dateStart":"1/1/2001","dateEnd":"12/31/2010","dateDisplay":"2001–2010","lat":"39.904214","long":"116.407413","dateExpire":"7/31/2025"},{ "ID":"10126", "Category":"Exchanges and Collaborations", "CategoryID":"6", "theDate":"", "Title":"Korea Foundation Internship at The Metropolitan Museum of Art ",   "city":"Seoul","country":"South Korea","region":"Asia","dateStart":"1/1/2011","dateEnd":"12/31/2011","dateDisplay":"2011","lat":"37.566535","long":"126.9779692","dateExpire":"7/31/2025"},{ "ID":"10127", "Category":"Exchanges and Collaborations", "CategoryID":"6", "theDate":"", "Title":"Iraq Museum Residencies Program at The Metropolitan Museum of Art ",   "city":"Baghdad","country":"Iraq","region":"Middle East","dateStart":"1/1/2011","dateEnd":"12/31/2011","dateDisplay":"2011","lat":"33.3157","long":"44.3922","dateExpire":"7/31/2025"},{ "ID":"10128", "Category":"Exchanges and Collaborations", "CategoryID":"6", "theDate":"", "Title":"The Dresden State Art Collections / The Metropolitan Museum of Art Staff Exchange Program ",   "city":"Dresden","country":"Germany","region":"Europe","dateStart":"1/1/2005","dateEnd":"12/31/2010","dateDisplay":"2005–2010","lat":"51.0509912","long":"13.7336335","dateExpire":"7/31/2025"},{ "ID":"10178", "Category":"Exchanges and Collaborations", "CategoryID":"6", "theDate":"", "Title":"Advisory Panel, Georgian National Museum, reinstallation of medieval collections ",   "city":"Tbilisi","country":"Georgia","region":"Europe","dateStart":"1/1/2010","dateEnd":"12/31/2011","dateDisplay":"2010–2011","lat":"41.709981","long":"44.792998","dateExpire":"7/31/2025"},{ "ID":"10239", "Category":"Exchanges and Collaborations", "CategoryID":"6", "theDate":"", "Title":"Moroccan Court, Islamic Art Galleries, The Metropolitan Museum of Art ",   "city":"Rabat","country":"Morocco","region":"Africa","dateStart":"12/1/2010","dateEnd":"10/31/2011","dateDisplay":"December 2010–October 2011","lat":"34.015049","long":"-6.83272","dateExpire":"7/31/2025"},{ "ID":"10127", "Category":"Exchanges and Collaborations", "CategoryID":"6", "theDate":"", "Title":"Iraq Museum Residencies Program at The Metropolitan Museum of Art ",   "city":"Washington, D.C.","country":"U.S.A.","region":"North America","dateStart":"1/1/2011","dateEnd":"12/31/2011","dateDisplay":"2011","lat":"38.8951118","long":"-77.0363658","dateExpire":"7/31/2025"}]}]